$GNRMC,112716.620,A,1254.031800,N,8005.619700,E,7.66,83.980,071125,,,A,V*3D
$GNRMC,112716.62,A,1254.031800,N,8005.619700,E,7.66,83.980,071125,,,A,V*0D
$GNRMC,112716.62,A,1254.031800,N,8005.619700,E,7.66,83.980,071125,,,A,V*0D
$GNRMC,112717.626,A,1254.033600,N,8005.616600,E,6.26,83.980,071125,,,A,V*3D
$GNRMC,112717.62,A,1254.033600,N,8005.616600,E,6.26,83.980,071125,,,A,V*0B
$GNRMC,112717.62,A,1254.033600,N,8005.616600,E,6.26,83.980,071125,,,A,V*0B
$GNRMC,112720.623,A,1254.034900,N,8005.620100,E,1.79,112.400,071125,,,A,V*07
$GNRMC,112720.62,A,1254.034900,N,8005.620100,E,1.79,112.400,071125,,,A,V*34
$GNRMC,112720.62,A,1254.034900,N,8005.620100,E,1.79,112.400,071125,,,A,V*34
$GNRMC,112721.625,A,1254.033900,N,8005.621000,E,0.23,113.160,071125,,,A,V*0B
$GNRMC,112721.62,A,1254.033900,N,8005.621000,E,0.23,112.400,071125,,,A,V*3C
$GNRMC,112721.62,A,1254.033900,N,8005.621000,E,0.23,112.400,071125,,,A,V*3C
$GNRMC,112722.626,A,1254.033400,N,8005.621700,E,0.67,106.490,071125,,,A,V*0F
$GNRMC,112722.62,A,1254.033400,N,8005.621700,E,0.67,106.490,071125,,,A,V*39
$GNRMC,112722.62,A,1254.033400,N,8005.621700,E,0.67,106.490,071125,,,A,V*39
$GNRMC,112724.627,A,1254.033600,N,8005.621500,E,0.33,144.910,071125,,,A,V*0A
$GNRMC,112724.62,A,1254.033600,N,8005.621500,E,0.33,144.910,071125,,,A,V*3D
$GNRMC,112724.62,A,1254.033600,N,8005.621500,E,0.33,144.910,071125,,,A,V*3D
$GNRMC,112725.654,A,1254.025600,N,8005.624400,E,0.08,171.630,071125,,,A,V*0F
$GNRMC,112725.65,A,1254.025600,N,8005.624400,E,0.08,144.910,071125,,,A,V*30
$GNRMC,112725.65,A,1254.025600,N,8005.624400,E,0.08,144.910,071125,,,A,V*30
$GNRMC,112727.000,A,1254.026800,N,8005.622800,E,0.18,140.090,071125,,,A,V*02
$GNRMC,112727.00,A,1254.026800,N,8005.622800,E,0.18,144.910,071125,,,A,V*37
$GNRMC,112727.00,A,1254.026800,N,8005.622800,E,0.18,144.910,071125,,,A,V*37
$GNRMC,112728.000,A,1254.027100,N,8005.622900,E,0.08,219.130,071125,,,A,V*01
$GNRMC,112728.00,A,1254.027100,N,8005.622900,E,0.08,144.910,071125,,,A,V*30
$GNRMC,112728.00,A,1254.027100,N,8005.622900,E,0.08,144.910,071125,,,A,V*30
$GNRMC,112729.000,A,1254.027200,N,8005.623000,E,0.03,304.750,071125,,,A,V*0D
$GNRMC,112729.00,A,1254.027200,N,8005.623000,E,0.03,144.910,071125,,,A,V*31
$GNRMC,112729.00,A,1254.027200,N,8005.623000,E,0.03,144.910,071125,,,A,V*31
$GNRMC,112730.000,A,1254.027100,N,8005.623300,E,0.33,309.800,071125,,,A,V*01
$GNRMC,112730.00,A,1254.027100,N,8005.623300,E,0.33,309.800,071125,,,A,V*31
$GNRMC,112730.00,A,1254.027100,N,8005.623300,E,0.33,309.800,071125,,,A,V*31
$GNRMC,112731.000,A,1254.027000,N,8005.623600,E,0.03,36.610,071125,,,A,V*37
$GNRMC,112731.00,A,1254.027000,N,8005.623600,E,0.03,309.800,071125,,,A,V*37
$GNRMC,112731.00,A,1254.027000,N,8005.623600,E,0.03,309.800,071125,,,A,V*37
$GNRMC,112732.000,A,1254.026900,N,8005.623900,E,0.06,119.570,071125,,,A,V*0F
$GNRMC,112732.00,A,1254.026900,N,8005.623900,E,0.06,309.800,071125,,,A,V*36
$GNRMC,112732.00,A,1254.026900,N,8005.623900,E,0.06,309.800,071125,,,A,V*36
$GNRMC,112733.000,A,1254.026700,N,8005.624200,E,0.07,298.800,071125,,,A,V*0D
$GNRMC,112733.00,A,1254.026700,N,8005.624200,E,0.07,309.800,071125,,,A,V*34
$GNRMC,112733.00,A,1254.026700,N,8005.624200,E,0.07,309.800,071125,,,A,V*34
$GNRMC,112734.000,A,1254.026700,N,8005.624300,E,0.05,314.070,071125,,,A,V*03
$GNRMC,112734.00,A,1254.026700,N,8005.624300,E,0.05,309.800,071125,,,A,V*30
$GNRMC,112734.00,A,1254.026700,N,8005.624300,E,0.05,309.800,071125,,,A,V*30
$GNRMC,112735.000,A,1254.026700,N,8005.624500,E,1.15,313.960,071125,,,A,V*0B
$GNRMC,112735.00,A,1254.026700,N,8005.624500,E,1.15,313.960,071125,,,A,V*3B
$GNRMC,112735.00,A,1254.026700,N,8005.624500,E,1.15,313.960,071125,,,A,V*3B
$GNRMC,112736.000,A,1254.026300,N,8005.624900,E,0.69,132.360,071125,,,A,V*01
$GNRMC,112736.00,A,1254.026300,N,8005.624900,E,0.69,132.360,071125,,,A,V*31
$GNRMC,112736.00,A,1254.026300,N,8005.624900,E,0.69,132.360,071125,,,A,V*31
$GNRMC,112737.000,A,1254.026100,N,8005.625200,E,0.14,130.790,071125,,,A,V*0B
$GNRMC,112737.00,A,1254.026100,N,8005.625200,E,0.14,132.360,071125,,,A,V*32
$GNRMC,112737.00,A,1254.026100,N,8005.625200,E,0.14,132.360,071125,,,A,V*32
$GNRMC,112738.000,A,1254.025800,N,8005.625500,E,0.04,116.360,071125,,,A,V*07
$GNRMC,112738.00,A,1254.025800,N,8005.625500,E,0.04,132.360,071125,,,A,V*31
$GNRMC,112738.00,A,1254.025800,N,8005.625500,E,0.04,132.360,071125,,,A,V*31
$GNRMC,112739.000,A,1254.025600,N,8005.625700,E,0.26,312.910,071125,,,A,V*01
$GNRMC,112739.00,A,1254.025600,N,8005.625700,E,0.26,132.360,071125,,,A,V*3C
$GNRMC,112739.00,A,1254.025600,N,8005.625700,E,0.26,132.360,071125,,,A,V*3C
$GNRMC,112740.000,A,1254.025500,N,8005.625700,E,0.10,131.770,071125,,,A,V*02
$GNRMC,112740.00,A,1254.025500,N,8005.625700,E,0.10,132.360,071125,,,A,V*34
$GNRMC,112740.00,A,1254.025500,N,8005.625700,E,0.10,132.360,071125,,,A,V*34
$GNRMC,112741.000,A,1254.025300,N,8005.625900,E,0.48,133.130,071125,,,A,V*06
$GNRMC,112741.00,A,1254.025300,N,8005.625900,E,0.48,133.130,071125,,,A,V*36
$GNRMC,112741.00,A,1254.025300,N,8005.625900,E,0.48,133.130,071125,,,A,V*36
$GNRMC,112742.000,A,1254.025200,N,8005.626000,E,0.54,133.550,071125,,,A,V*01
$GNRMC,112742.00,A,1254.025200,N,8005.626000,E,0.54,133.550,071125,,,A,V*31
$GNRMC,112742.00,A,1254.025200,N,8005.626000,E,0.54,133.550,071125,,,A,V*31
$GNRMC,112743.000,A,1254.025100,N,8005.626200,E,0.14,134.610,071125,,,A,V*05
$GNRMC,112743.00,A,1254.025100,N,8005.626200,E,0.14,133.550,071125,,,A,V*35
$GNRMC,112743.00,A,1254.025100,N,8005.626200,E,0.14,133.550,071125,,,A,V*35
$GNRMC,112744.000,A,1254.024700,N,8005.626500,E,0.22,134.050,071125,,,A,V*05
$GNRMC,112744.00,A,1254.024700,N,8005.626500,E,0.22,133.550,071125,,,A,V*37
$GNRMC,112744.00,A,1254.024700,N,8005.626500,E,0.22,133.550,071125,,,A,V*37
$GNRMC,112745.000,A,1254.024600,N,8005.626700,E,0.63,133.180,071125,,,A,V*09
$GNRMC,112745.00,A,1254.024600,N,8005.626700,E,0.63,133.180,071125,,,A,V*39
$GNRMC,112745.00,A,1254.024600,N,8005.626700,E,0.63,133.180,071125,,,A,V*39
$GNRMC,112746.000,A,1254.024300,N,8005.627100,E,1.03,133.890,071125,,,A,V*07
$GNRMC,112746.00,A,1254.024300,N,8005.627100,E,1.03,133.890,071125,,,A,V*37
$GNRMC,112746.00,A,1254.024300,N,8005.627100,E,1.03,133.890,071125,,,A,V*37
$GNRMC,112747.000,A,1254.024000,N,8005.627500,E,1.15,134.490,071125,,,A,V*0D
$GNRMC,112747.00,A,1254.024000,N,8005.627500,E,1.15,134.490,071125,,,A,V*3D
$GNRMC,112747.00,A,1254.024000,N,8005.627500,E,1.15,134.490,071125,,,A,V*3D
$GNRMC,112748.000,A,1254.024000,N,8005.627400,E,0.26,311.300,071125,,,A,V*09
$GNRMC,112748.00,A,1254.024000,N,8005.627400,E,0.26,134.490,071125,,,A,V*32
$GNRMC,112748.00,A,1254.024000,N,8005.627400,E,0.26,134.490,071125,,,A,V*32
$GNRMC,112749.000,A,1254.024000,N,8005.627000,E,1.99,256.990,071125,,,A,V*08
$GNRMC,112749.00,A,1254.024000,N,8005.627000,E,1.99,256.990,071125,,,A,V*38
$GNRMC,112749.00,A,1254.024000,N,8005.627000,E,1.99,256.990,071125,,,A,V*38
$GNRMC,112750.000,A,1254.024000,N,8005.626600,E,0.84,293.020,071125,,,A,V*01
$GNRMC,112750.00,A,1254.024000,N,8005.626600,E,0.84,293.020,071125,,,A,V*31
$GNRMC,112750.00,A,1254.024000,N,8005.626600,E,0.84,293.020,071125,,,A,V*31
$GNRMC,112751.000,A,1254.024100,N,8005.626500,E,0.25,6.200,071125,,,A,V*07
$GNRMC,112751.00,A,1254.024100,N,8005.626500,E,0.25,293.020,071125,,,A,V*39
$GNRMC,112751.00,A,1254.024100,N,8005.626500,E,0.25,293.020,071125,,,A,V*39
$GNRMC,112752.000,A,1254.024000,N,8005.626400,E,0.60,248.970,071125,,,A,V*01
$GNRMC,112752.00,A,1254.024000,N,8005.626400,E,0.60,248.970,071125,,,A,V*31
$GNRMC,112752.00,A,1254.024000,N,8005.626400,E,0.60,248.970,071125,,,A,V*31
$GNRMC,112753.000,A,1254.023900,N,8005.626300,E,0.61,229.260,071125,,,A,V*05
$GNRMC,112753.00,A,1254.023900,N,8005.626300,E,0.61,229.260,071125,,,A,V*35
$GNRMC,112753.00,A,1254.023900,N,8005.626300,E,0.61,229.260,071125,,,A,V*35
$GNRMC,112754.000,A,1254.024000,N,8005.626300,E,0.59,226.490,071125,,,A,V*01
$GNRMC,112754.00,A,1254.024000,N,8005.626300,E,0.59,226.490,071125,,,A,V*31
$GNRMC,112754.00,A,1254.024000,N,8005.626300,E,0.59,226.490,071125,,,A,V*31
$GNRMC,112755.000,A,1254.023800,N,8005.626100,E,2.35,224.560,071125,,,A,V*09
$GNRMC,112755.00,A,1254.023800,N,8005.626100,E,2.35,224.560,071125,,,A,V*39
$GNRMC,112755.00,A,1254.023800,N,8005.626100,E,2.35,224.560,071125,,,A,V*39
$GNRMC,112756.000,A,1254.023600,N,8005.625800,E,0.76,251.260,071125,,,A,V*0E
$GNRMC,112756.00,A,1254.023600,N,8005.625800,E,0.76,251.260,071125,,,A,V*3E
$GNRMC,112756.00,A,1254.023600,N,8005.625800,E,0.76,251.260,071125,,,A,V*3E
$GNRMC,112757.000,A,1254.023600,N,8005.625600,E,0.85,228.230,071125,,,A,V*06
$GNRMC,112757.00,A,1254.023600,N,8005.625600,E,0.85,228.230,071125,,,A,V*36
$GNRMC,112757.00,A,1254.023600,N,8005.625600,E,0.85,228.230,071125,,,A,V*36
$GNRMC,112758.000,A,1254.023700,N,8005.625500,E,0.59,287.290,071125,,,A,V*05
$GNRMC,112758.00,A,1254.023700,N,8005.625500,E,0.59,287.290,071125,,,A,V*35
$GNRMC,112758.00,A,1254.023700,N,8005.625500,E,0.59,287.290,071125,,,A,V*35
$GNRMC,112759.000,A,1254.024300,N,8005.625300,E,0.43,296.090,071125,,,A,V*08
$GNRMC,112759.00,A,1254.024300,N,8005.625300,E,0.43,296.090,071125,,,A,V*38
$GNRMC,112759.00,A,1254.024300,N,8005.625300,E,0.43,296.090,071125,,,A,V*38
$GNRMC,112800.000,A,1254.024500,N,8005.625400,E,0.18,316.610,071125,,,A,V*03
$GNRMC,112800.00,A,1254.024500,N,8005.625400,E,0.18,296.090,071125,,,A,V*34
$GNRMC,112800.00,A,1254.024500,N,8005.625400,E,0.18,296.090,071125,,,A,V*34
$GNRMC,112801.000,A,1254.024700,N,8005.625500,E,0.06,357.810,071125,,,A,V*05
$GNRMC,112801.00,A,1254.024700,N,8005.625500,E,0.06,296.090,071125,,,A,V*39
$GNRMC,112801.00,A,1254.024700,N,8005.625500,E,0.06,296.090,071125,,,A,V*39
$GNRMC,112802.000,A,1254.024800,N,8005.625600,E,0.07,309.340,071125,,,A,V*0E
$GNRMC,112802.00,A,1254.024800,N,8005.625600,E,0.07,296.090,071125,,,A,V*37
$GNRMC,112802.00,A,1254.024800,N,8005.625600,E,0.07,296.090,071125,,,A,V*37
$GNRMC,112803.000,A,1254.024900,N,8005.625800,E,0.07,211.020,071125,,,A,V*0D
$GNRMC,112803.00,A,1254.024900,N,8005.625800,E,0.07,296.090,071125,,,A,V*39
$GNRMC,112803.00,A,1254.024900,N,8005.625800,E,0.07,296.090,071125,,,A,V*39
$GNRMC,112804.000,A,1254.025000,N,8005.626000,E,0.08,198.150,071125,,,A,V*02
$GNRMC,112804.00,A,1254.025000,N,8005.626000,E,0.08,296.090,071125,,,A,V*32
$GNRMC,112804.00,A,1254.025000,N,8005.626000,E,0.08,296.090,071125,,,A,V*32
$GNRMC,112805.000,A,1254.024900,N,8005.625900,E,0.13,242.440,071125,,,A,V*0B
$GNRMC,112805.00,A,1254.024900,N,8005.625900,E,0.13,296.090,071125,,,A,V*3B
$GNRMC,112805.00,A,1254.024900,N,8005.625900,E,0.13,296.090,071125,,,A,V*3B
$GNRMC,112806.000,A,1254.025300,N,8005.625900,E,0.12,273.480,071125,,,A,V*0C
$GNRMC,112806.00,A,1254.025300,N,8005.625900,E,0.12,296.090,071125,,,A,V*32
$GNRMC,112806.00,A,1254.025300,N,8005.625900,E,0.12,296.090,071125,,,A,V*32
$GNRMC,112807.000,A,1254.025600,N,8005.625800,E,0.08,267.540,071125,,,A,V*0A
$GNRMC,112807.00,A,1254.025600,N,8005.625800,E,0.08,296.090,071125,,,A,V*3C
$GNRMC,112807.00,A,1254.025600,N,8005.625800,E,0.08,296.090,071125,,,A,V*3C
$GNRMC,112808.000,A,1254.025700,N,8005.625700,E,0.08,313.110,071125,,,A,V*08
$GNRMC,112808.00,A,1254.025700,N,8005.625700,E,0.08,296.090,071125,,,A,V*3D
$GNRMC,112808.00,A,1254.025700,N,8005.625700,E,0.08,296.090,071125,,,A,V*3D
$GNRMC,112809.000,A,1254.025700,N,8005.625600,E,0.03,50.960,071125,,,A,V*38
$GNRMC,112809.00,A,1254.025700,N,8005.625600,E,0.03,296.090,071125,,,A,V*36
$GNRMC,112809.00,A,1254.025700,N,8005.625600,E,0.03,296.090,071125,,,A,V*36
$GNRMC,112810.000,A,1254.025800,N,8005.625700,E,0.07,305.870,071125,,,A,V*09
$GNRMC,112810.00,A,1254.025800,N,8005.625700,E,0.07,296.090,071125,,,A,V*34
$GNRMC,112810.00,A,1254.025800,N,8005.625700,E,0.07,296.090,071125,,,A,V*34
$GNRMC,112811.000,A,1254.025700,N,8005.625700,E,0.04,130.600,071125,,,A,V*09
$GNRMC,112811.00,A,1254.025700,N,8005.625700,E,0.04,296.090,071125,,,A,V*39
$GNRMC,112811.00,A,1254.025700,N,8005.625700,E,0.04,296.090,071125,,,A,V*39
$GNRMC,112812.000,A,1254.025600,N,8005.625800,E,0.02,279.280,071125,,,A,V*00
$GNRMC,112812.00,A,1254.025600,N,8005.625800,E,0.02,296.090,071125,,,A,V*32
$GNRMC,112812.00,A,1254.025600,N,8005.625800,E,0.02,296.090,071125,,,A,V*32
$GNRMC,112813.000,A,1254.025700,N,8005.626000,E,0.09,328.040,071125,,,A,V*0B
$GNRMC,112813.00,A,1254.025700,N,8005.626000,E,0.09,296.090,071125,,,A,V*32
$GNRMC,112813.00,A,1254.025700,N,8005.626000,E,0.09,296.090,071125,,,A,V*32
$GNRMC,112814.000,A,1254.025700,N,8005.625900,E,0.10,285.260,071125,,,A,V*08
$GNRMC,112814.00,A,1254.025700,N,8005.625900,E,0.10,296.090,071125,,,A,V*37
$GNRMC,112814.00,A,1254.025700,N,8005.625900,E,0.10,296.090,071125,,,A,V*37
$GNRMC,112815.000,A,1254.025600,N,8005.625800,E,0.00,286.460,071125,,,A,V*0D
$GNRMC,112815.00,A,1254.025600,N,8005.625800,E,0.00,296.090,071125,,,A,V*37
$GNRMC,112815.00,A,1254.025600,N,8005.625800,E,0.00,296.090,071125,,,A,V*37
$GNRMC,112816.000,A,1254.025500,N,8005.625600,E,0.08,285.540,071125,,,A,V*0B
$GNRMC,112816.00,A,1254.025500,N,8005.625600,E,0.08,296.090,071125,,,A,V*31
$GNRMC,112816.00,A,1254.025500,N,8005.625600,E,0.08,296.090,071125,,,A,V*31
$GNRMC,112817.000,A,1254.025300,N,8005.625500,E,0.09,241.250,071125,,,A,V*00
$GNRMC,112817.00,A,1254.025300,N,8005.625500,E,0.09,296.090,071125,,,A,V*34
$GNRMC,112817.00,A,1254.025300,N,8005.625500,E,0.09,296.090,071125,,,A,V*34
$GNRMC,112818.000,A,1254.025200,N,8005.625500,E,0.02,340.600,071125,,,A,V*04
$GNRMC,112818.00,A,1254.025200,N,8005.625500,E,0.02,296.090,071125,,,A,V*31
$GNRMC,112818.00,A,1254.025200,N,8005.625500,E,0.02,296.090,071125,,,A,V*31
$GNRMC,112819.000,A,1254.025300,N,8005.625600,E,0.59,351.280,071125,,,A,V*05
$GNRMC,112819.00,A,1254.025300,N,8005.625600,E,0.59,351.280,071125,,,A,V*35
$GNRMC,112819.00,A,1254.025300,N,8005.625600,E,0.59,351.280,071125,,,A,V*35
$GNRMC,112820.000,A,1254.025300,N,8005.625500,E,0.22,64.700,071125,,,A,V*38
$GNRMC,112820.00,A,1254.025300,N,8005.625500,E,0.22,351.280,071125,,,A,V*30
$GNRMC,112820.00,A,1254.025300,N,8005.625500,E,0.22,351.280,071125,,,A,V*30
$GNRMC,112821.000,A,1254.025300,N,8005.625600,E,0.14,92.590,071125,,,A,V*3D
$GNRMC,112821.00,A,1254.025300,N,8005.625600,E,0.14,351.280,071125,,,A,V*37
$GNRMC,112821.00,A,1254.025300,N,8005.625600,E,0.14,351.280,071125,,,A,V*37
$GNRMC,112822.000,A,1254.025300,N,8005.625700,E,0.41,84.520,071125,,,A,V*33
$GNRMC,112822.00,A,1254.025300,N,8005.625700,E,0.41,84.520,071125,,,A,V*03
$GNRMC,112822.00,A,1254.025300,N,8005.625700,E,0.41,84.520,071125,,,A,V*03
$GNRMC,112823.000,A,1254.025200,N,8005.625700,E,0.35,91.240,071125,,,A,V*35
$GNRMC,112823.00,A,1254.025200,N,8005.625700,E,0.35,91.240,071125,,,A,V*05
$GNRMC,112823.00,A,1254.025200,N,8005.625700,E,0.35,91.240,071125,,,A,V*05
$GNRMC,112824.000,A,1254.025200,N,8005.625700,E,0.19,63.920,071125,,,A,V*3C
$GNRMC,112824.00,A,1254.025200,N,8005.625700,E,0.19,91.240,071125,,,A,V*0C
$GNRMC,112824.00,A,1254.025200,N,8005.625700,E,0.19,91.240,071125,,,A,V*0C
$GNRMC,112825.000,A,1254.025200,N,8005.625800,E,0.53,19.810,071125,,,A,V*33
$GNRMC,112825.00,A,1254.025200,N,8005.625800,E,0.53,19.810,071125,,,A,V*03
$GNRMC,112825.00,A,1254.025200,N,8005.625800,E,0.53,19.810,071125,,,A,V*03
$GNRMC,112826.000,A,1254.025200,N,8005.625800,E,0.12,39.300,071125,,,A,V*3D
$GNRMC,112826.00,A,1254.025200,N,8005.625800,E,0.12,19.810,071125,,,A,V*05
$GNRMC,112826.00,A,1254.025200,N,8005.625800,E,0.12,19.810,071125,,,A,V*05
$GNRMC,112827.000,A,1254.025300,N,8005.625900,E,0.16,84.870,071125,,,A,V*32
$GNRMC,112827.00,A,1254.025300,N,8005.625900,E,0.16,19.810,071125,,,A,V*00
$GNRMC,112827.00,A,1254.025300,N,8005.625900,E,0.16,19.810,071125,,,A,V*00
$GNRMC,112828.000,A,1254.025200,N,8005.625900,E,0.03,338.100,071125,,,A,V*02
$GNRMC,112828.00,A,1254.025200,N,8005.625900,E,0.03,19.810,071125,,,A,V*0A
$GNRMC,112828.00,A,1254.025200,N,8005.625900,E,0.03,19.810,071125,,,A,V*0A
$GNRMC,112829.000,A,1254.025200,N,8005.625800,E,0.37,335.010,071125,,,A,V*08
$GNRMC,112829.00,A,1254.025200,N,8005.625800,E,0.37,335.010,071125,,,A,V*38
$GNRMC,112829.00,A,1254.025200,N,8005.625800,E,0.37,335.010,071125,,,A,V*38
$GNRMC,112830.000,A,1254.025100,N,8005.625700,E,0.46,255.600,071125,,,A,V*0A
$GNRMC,112830.00,A,1254.025100,N,8005.625700,E,0.46,255.600,071125,,,A,V*3A
$GNRMC,112830.00,A,1254.025100,N,8005.625700,E,0.46,255.600,071125,,,A,V*3A
$GNRMC,112831.000,A,1254.025100,N,8005.625500,E,0.65,246.440,071125,,,A,V*0C
$GNRMC,112831.00,A,1254.025100,N,8005.625500,E,0.65,246.440,071125,,,A,V*3C
$GNRMC,112831.00,A,1254.025100,N,8005.625500,E,0.65,246.440,071125,,,A,V*3C
$GNRMC,112832.000,A,1254.025000,N,8005.625400,E,0.37,238.880,071125,,,A,V*01
$GNRMC,112832.00,A,1254.025000,N,8005.625400,E,0.37,238.880,071125,,,A,V*31
$GNRMC,112832.00,A,1254.025000,N,8005.625400,E,0.37,238.880,071125,,,A,V*31
$GNRMC,112833.000,A,1254.024900,N,8005.625500,E,0.23,227.660,071125,,,A,V*02
$GNRMC,112833.00,A,1254.024900,N,8005.625500,E,0.23,238.880,071125,,,A,V*3C
$GNRMC,112833.00,A,1254.024900,N,8005.625500,E,0.23,238.880,071125,,,A,V*3C
$GNRMC,112834.000,A,1254.025200,N,8005.625700,E,0.95,12.060,071125,,,A,V*32
$GNRMC,112834.00,A,1254.025200,N,8005.625700,E,0.95,12.060,071125,,,A,V*02
$GNRMC,112834.00,A,1254.025200,N,8005.625700,E,0.95,12.060,071125,,,A,V*02
$GNRMC,112835.000,A,1254.025400,N,8005.625800,E,1.24,13.090,071125,,,A,V*3F
$GNRMC,112835.00,A,1254.025400,N,8005.625800,E,1.24,13.090,071125,,,A,V*0F
$GNRMC,112835.00,A,1254.025400,N,8005.625800,E,1.24,13.090,071125,,,A,V*0F
$GNRMC,112836.000,A,1254.025800,N,8005.625900,E,1.75,9.280,071125,,,A,V*0D
$GNRMC,112836.00,A,1254.025800,N,8005.625900,E,1.75,9.280,071125,,,A,V*3D
$GNRMC,112836.00,A,1254.025800,N,8005.625900,E,1.75,9.280,071125,,,A,V*3D
$GNRMC,112837.000,A,1254.026100,N,8005.625900,E,1.42,0.340,071125,,,A,V*06
$GNRMC,112837.00,A,1254.026100,N,8005.625900,E,1.42,0.340,071125,,,A,V*36
$GNRMC,112837.00,A,1254.026100,N,8005.625900,E,1.42,0.340,071125,,,A,V*36
$GNRMC,112838.000,A,1254.026600,N,8005.625900,E,1.54,358.930,071125,,,A,V*0A
$GNRMC,112838.00,A,1254.026600,N,8005.625900,E,1.54,358.930,071125,,,A,V*3A
$GNRMC,112838.00,A,1254.026600,N,8005.625900,E,1.54,358.930,071125,,,A,V*3A
$GNRMC,112839.000,A,1254.026100,N,8005.625800,E,0.86,193.200,071125,,,A,V*0E
$GNRMC,112839.00,A,1254.026100,N,8005.625800,E,0.86,193.200,071125,,,A,V*3E
$GNRMC,112839.00,A,1254.026100,N,8005.625800,E,0.86,193.200,071125,,,A,V*3E
$GNRMC,112840.000,A,1254.025800,N,8005.625800,E,0.77,191.270,071125,,,A,V*01
$GNRMC,112840.00,A,1254.025800,N,8005.625800,E,0.77,191.270,071125,,,A,V*31
$GNRMC,112840.00,A,1254.025800,N,8005.625800,E,0.77,191.270,071125,,,A,V*31
$GNRMC,112841.000,A,1254.025700,N,8005.625900,E,0.37,188.100,071125,,,A,V*06
$GNRMC,112841.00,A,1254.025700,N,8005.625900,E,0.37,188.100,071125,,,A,V*36
$GNRMC,112841.00,A,1254.025700,N,8005.625900,E,0.37,188.100,071125,,,A,V*36
$GNRMC,112842.000,A,1254.025600,N,8005.625800,E,0.35,172.990,071125,,,A,V*03
$GNRMC,112842.00,A,1254.025600,N,8005.625800,E,0.35,172.990,071125,,,A,V*33
$GNRMC,112842.00,A,1254.025600,N,8005.625800,E,0.35,172.990,071125,,,A,V*33
$GNRMC,112843.000,A,1254.025700,N,8005.625900,E,0.72,51.250,071125,,,A,V*36
$GNRMC,112843.00,A,1254.025700,N,8005.625900,E,0.72,51.250,071125,,,A,V*06
$GNRMC,112843.00,A,1254.025700,N,8005.625900,E,0.72,51.250,071125,,,A,V*06
$GNRMC,112844.000,A,1254.026100,N,8005.626000,E,0.76,63.470,071125,,,A,V*3F
$GNRMC,112844.00,A,1254.026100,N,8005.626000,E,0.76,63.470,071125,,,A,V*0F
$GNRMC,112844.00,A,1254.026100,N,8005.626000,E,0.76,63.470,071125,,,A,V*0F
$GNRMC,112845.000,A,1254.026000,N,8005.626000,E,0.21,89.030,071125,,,A,V*39
$GNRMC,112845.00,A,1254.026000,N,8005.626000,E,0.21,63.470,071125,,,A,V*0D
$GNRMC,112845.00,A,1254.026000,N,8005.626000,E,0.21,63.470,071125,,,A,V*0D
$GNRMC,112846.000,A,1254.026000,N,8005.625800,E,0.36,315.220,071125,,,A,V*02
$GNRMC,112846.00,A,1254.026000,N,8005.625800,E,0.36,315.220,071125,,,A,V*32
$GNRMC,112846.00,A,1254.026000,N,8005.625800,E,0.36,315.220,071125,,,A,V*32
$GNRMC,112847.000,A,1254.026100,N,8005.625600,E,0.52,314.990,071125,,,A,V*0F
$GNRMC,112847.00,A,1254.026100,N,8005.625600,E,0.52,314.990,071125,,,A,V*3F
$GNRMC,112847.00,A,1254.026100,N,8005.625600,E,0.52,314.990,071125,,,A,V*3F
$GNRMC,112848.000,A,1254.026200,N,8005.625600,E,0.62,315.290,071125,,,A,V*0A
$GNRMC,112848.00,A,1254.026200,N,8005.625600,E,0.62,315.290,071125,,,A,V*3A
$GNRMC,112848.00,A,1254.026200,N,8005.625600,E,0.62,315.290,071125,,,A,V*3A
$GNRMC,112849.000,A,1254.026200,N,8005.625700,E,0.34,344.990,071125,,,A,V*06
$GNRMC,112849.00,A,1254.026200,N,8005.625700,E,0.34,344.990,071125,,,A,V*36
$GNRMC,112849.00,A,1254.026200,N,8005.625700,E,0.34,344.990,071125,,,A,V*36
$GNRMC,112850.000,A,1254.026500,N,8005.625700,E,1.45,6.040,071125,,,A,V*0F
$GNRMC,112850.00,A,1254.026500,N,8005.625700,E,1.45,6.040,071125,,,A,V*3F
$GNRMC,112850.00,A,1254.026500,N,8005.625700,E,1.45,6.040,071125,,,A,V*3F
$GNRMC,112851.000,A,1254.026800,N,8005.625800,E,1.05,2.420,071125,,,A,V*0E
$GNRMC,112851.00,A,1254.026800,N,8005.625800,E,1.05,2.420,071125,,,A,V*3E
$GNRMC,112851.00,A,1254.026800,N,8005.625800,E,1.05,2.420,071125,,,A,V*3E
$GNRMC,112852.000,A,1254.026900,N,8005.625700,E,0.92,354.210,071125,,,A,V*09
$GNRMC,112852.00,A,1254.026900,N,8005.625700,E,0.92,354.210,071125,,,A,V*39
$GNRMC,112852.00,A,1254.026900,N,8005.625700,E,0.92,354.210,071125,,,A,V*39
$GNRMC,112853.000,A,1254.027000,N,8005.625600,E,0.60,339.260,071125,,,A,V*00
$GNRMC,112853.00,A,1254.027000,N,8005.625600,E,0.60,339.260,071125,,,A,V*30
$GNRMC,112853.00,A,1254.027000,N,8005.625600,E,0.60,339.260,071125,,,A,V*30
$GNRMC,112854.000,A,1254.026800,N,8005.625700,E,0.17,55.450,071125,,,A,V*33
$GNRMC,112854.00,A,1254.026800,N,8005.625700,E,0.17,339.260,071125,,,A,V*3F
$GNRMC,112854.00,A,1254.026800,N,8005.625700,E,0.17,339.260,071125,,,A,V*3F
$GNRMC,112855.000,A,1254.026600,N,8005.625800,E,0.31,96.260,071125,,,A,V*3D
$GNRMC,112855.00,A,1254.026600,N,8005.625800,E,0.31,96.260,071125,,,A,V*0D
$GNRMC,112855.00,A,1254.026600,N,8005.625800,E,0.31,96.260,071125,,,A,V*0D
$GNRMC,112856.000,A,1254.026400,N,8005.625900,E,0.09,122.900,071125,,,A,V*05
$GNRMC,112856.00,A,1254.026400,N,8005.625900,E,0.09,96.260,071125,,,A,V*06
$GNRMC,112856.00,A,1254.026400,N,8005.625900,E,0.09,96.260,071125,,,A,V*06
$GNRMC,112857.000,A,1254.026400,N,8005.625800,E,0.16,316.850,071125,,,A,V*0A
$GNRMC,112857.00,A,1254.026400,N,8005.625800,E,0.16,96.260,071125,,,A,V*08
$GNRMC,112857.00,A,1254.026400,N,8005.625800,E,0.16,96.260,071125,,,A,V*08
$GNRMC,112858.000,A,1254.026200,N,8005.625900,E,0.55,132.600,071125,,,A,V*0A
$GNRMC,112858.00,A,1254.026200,N,8005.625900,E,0.55,132.600,071125,,,A,V*3A
$GNRMC,112858.00,A,1254.026200,N,8005.625900,E,0.55,132.600,071125,,,A,V*3A
$GNRMC,112859.000,A,1254.026300,N,8005.625900,E,1.99,134.300,071125,,,A,V*08
$GNRMC,112859.00,A,1254.026300,N,8005.625900,E,1.99,134.300,071125,,,A,V*38
$GNRMC,112859.00,A,1254.026300,N,8005.625900,E,1.99,134.300,071125,,,A,V*38
$GNRMC,112900.000,A,1254.026000,N,8005.626100,E,0.45,124.490,071125,,,A,V*02
$GNRMC,112900.00,A,1254.026000,N,8005.626100,E,0.45,124.490,071125,,,A,V*32
$GNRMC,112900.00,A,1254.026000,N,8005.626100,E,0.45,124.490,071125,,,A,V*32
$GNRMC,112901.000,A,1254.026100,N,8005.626300,E,0.08,89.830,071125,,,A,V*39
$GNRMC,112901.00,A,1254.026100,N,8005.626300,E,0.08,124.490,071125,,,A,V*39
$GNRMC,112901.00,A,1254.026100,N,8005.626300,E,0.08,124.490,071125,,,A,V*39
$GNRMC,112902.000,A,1254.026100,N,8005.626400,E,0.34,60.190,071125,,,A,V*36
$GNRMC,112902.00,A,1254.026100,N,8005.626400,E,0.34,60.190,071125,,,A,V*06
$GNRMC,112902.00,A,1254.026100,N,8005.626400,E,0.34,60.190,071125,,,A,V*06
$GNRMC,112903.000,A,1254.026100,N,8005.626300,E,0.03,26.080,071125,,,A,V*36
$GNRMC,112903.00,A,1254.026100,N,8005.626300,E,0.03,60.190,071125,,,A,V*04
$GNRMC,112903.00,A,1254.026100,N,8005.626300,E,0.03,60.190,071125,,,A,V*04
$GNRMC,112904.000,A,1254.026200,N,8005.626400,E,0.31,82.880,071125,,,A,V*32
$GNRMC,112904.00,A,1254.026200,N,8005.626400,E,0.31,82.880,071125,,,A,V*02
$GNRMC,112904.00,A,1254.026200,N,8005.626400,E,0.31,82.880,071125,,,A,V*02
$GNRMC,112905.000,A,1254.026100,N,8005.626400,E,0.14,285.340,071125,,,A,V*05
$GNRMC,112905.00,A,1254.026100,N,8005.626400,E,0.14,82.880,071125,,,A,V*07
$GNRMC,112905.00,A,1254.026100,N,8005.626400,E,0.14,82.880,071125,,,A,V*07
$GNRMC,112906.000,A,1254.026200,N,8005.626400,E,0.07,233.620,071125,,,A,V*09
$GNRMC,112906.00,A,1254.026200,N,8005.626400,E,0.07,82.880,071125,,,A,V*05
$GNRMC,112906.00,A,1254.026200,N,8005.626400,E,0.07,82.880,071125,,,A,V*05
$GNRMC,112907.000,A,1254.026200,N,8005.626400,E,0.06,77.760,071125,,,A,V*3E
$GNRMC,112907.00,A,1254.026200,N,8005.626400,E,0.06,82.880,071125,,,A,V*05
$GNRMC,112907.00,A,1254.026200,N,8005.626400,E,0.06,82.880,071125,,,A,V*05
$GNRMC,112908.000,A,1254.026200,N,8005.626400,E,0.21,136.510,071125,,,A,V*05
$GNRMC,112908.00,A,1254.026200,N,8005.626400,E,0.21,82.880,071125,,,A,V*0F
$GNRMC,112908.00,A,1254.026200,N,8005.626400,E,0.21,82.880,071125,,,A,V*0F
$GNRMC,112909.000,A,1254.026100,N,8005.626500,E,0.72,83.460,071125,,,A,V*39
$GNRMC,112909.00,A,1254.026100,N,8005.626500,E,0.72,83.460,071125,,,A,V*09
$GNRMC,112909.00,A,1254.026100,N,8005.626500,E,0.72,83.460,071125,,,A,V*09
$GNRMC,112910.000,A,1254.026200,N,8005.626600,E,0.21,222.130,071125,,,A,V*0E
$GNRMC,112910.00,A,1254.026200,N,8005.626600,E,0.21,83.460,071125,,,A,V*07
$GNRMC,112910.00,A,1254.026200,N,8005.626600,E,0.21,83.460,071125,,,A,V*07
$GNRMC,112911.000,A,1254.026200,N,8005.626600,E,0.08,104.730,071125,,,A,V*05
$GNRMC,112911.00,A,1254.026200,N,8005.626600,E,0.08,83.460,071125,,,A,V*0D
$GNRMC,112911.00,A,1254.026200,N,8005.626600,E,0.08,83.460,071125,,,A,V*0D
$GNRMC,112912.000,A,1254.026200,N,8005.626600,E,0.14,257.460,071125,,,A,V*08
$GNRMC,112912.00,A,1254.026200,N,8005.626600,E,0.14,83.460,071125,,,A,V*03
$GNRMC,112912.00,A,1254.026200,N,8005.626600,E,0.14,83.460,071125,,,A,V*03
$GNRMC,112913.000,A,1254.026200,N,8005.626500,E,0.15,219.000,071125,,,A,V*03
$GNRMC,112913.00,A,1254.026200,N,8005.626500,E,0.15,83.460,071125,,,A,V*00
$GNRMC,112913.00,A,1254.026200,N,8005.626500,E,0.15,83.460,071125,,,A,V*00
$GNRMC,112914.000,A,1254.026300,N,8005.626500,E,0.04,145.240,071125,,,A,V*09
$GNRMC,112914.00,A,1254.026300,N,8005.626500,E,0.04,83.460,071125,,,A,V*06
$GNRMC,112914.00,A,1254.026300,N,8005.626500,E,0.04,83.460,071125,,,A,V*06
$GNRMC,112915.000,A,1254.026300,N,8005.626500,E,0.23,354.130,071125,,,A,V*0B
$GNRMC,112915.00,A,1254.026300,N,8005.626500,E,0.23,83.460,071125,,,A,V*02
$GNRMC,112915.00,A,1254.026300,N,8005.626500,E,0.23,83.460,071125,,,A,V*02
$GNRMC,112916.000,A,1254.026900,N,8005.626300,E,1.66,337.270,071125,,,A,V*06
$GNRMC,112916.00,A,1254.026900,N,8005.626300,E,1.66,337.270,071125,,,A,V*36
$GNRMC,112916.00,A,1254.026900,N,8005.626300,E,1.66,337.270,071125,,,A,V*36
$GNRMC,112917.000,A,1254.027200,N,8005.626300,E,0.96,328.410,071125,,,A,V*0D
$GNRMC,112917.00,A,1254.027200,N,8005.626300,E,0.96,328.410,071125,,,A,V*3D
$GNRMC,112917.00,A,1254.027200,N,8005.626300,E,0.96,328.410,071125,,,A,V*3D
$GNRMC,112918.000,A,1254.027000,N,8005.626500,E,0.14,304.120,071125,,,A,V*04
$GNRMC,112918.00,A,1254.027000,N,8005.626500,E,0.14,328.410,071125,,,A,V*3C
$GNRMC,112918.00,A,1254.027000,N,8005.626500,E,0.14,328.410,071125,,,A,V*3C
$GNRMC,112919.000,A,1254.027100,N,8005.626400,E,0.21,264.210,071125,,,A,V*04
$GNRMC,112919.00,A,1254.027100,N,8005.626400,E,0.21,328.410,071125,,,A,V*3B
$GNRMC,112919.00,A,1254.027100,N,8005.626400,E,0.21,328.410,071125,,,A,V*3B
$GNRMC,112920.000,A,1254.027200,N,8005.626400,E,0.17,269.770,071125,,,A,V*06
$GNRMC,112920.00,A,1254.027200,N,8005.626400,E,0.17,328.410,071125,,,A,V*37
$GNRMC,112920.00,A,1254.027200,N,8005.626400,E,0.17,328.410,071125,,,A,V*37
$GNRMC,112921.000,A,1254.027200,N,8005.626400,E,0.08,231.940,071125,,,A,V*09
$GNRMC,112921.00,A,1254.027200,N,8005.626400,E,0.08,328.410,071125,,,A,V*38
$GNRMC,112921.00,A,1254.027200,N,8005.626400,E,0.08,328.410,071125,,,A,V*38
$GNRMC,112922.000,A,1254.027300,N,8005.626300,E,0.02,348.820,071125,,,A,V*0E
$GNRMC,112922.00,A,1254.027300,N,8005.626300,E,0.02,328.410,071125,,,A,V*37
$GNRMC,112922.00,A,1254.027300,N,8005.626300,E,0.02,328.410,071125,,,A,V*37
$GNRMC,112923.000,A,1254.027200,N,8005.626400,E,0.48,328.910,071125,,,A,V*03
$GNRMC,112923.00,A,1254.027200,N,8005.626400,E,0.48,328.910,071125,,,A,V*33
$GNRMC,112923.00,A,1254.027200,N,8005.626400,E,0.48,328.910,071125,,,A,V*33
$GNRMC,112924.000,A,1254.027400,N,8005.626400,E,1.30,27.010,071125,,,A,V*39
$GNRMC,112924.00,A,1254.027400,N,8005.626400,E,1.30,27.010,071125,,,A,V*09
$GNRMC,112924.00,A,1254.027400,N,8005.626400,E,1.30,27.010,071125,,,A,V*09
$GNRMC,112925.000,A,1254.027500,N,8005.626500,E,0.45,17.640,071125,,,A,V*3B
$GNRMC,112925.00,A,1254.027500,N,8005.626500,E,0.45,17.640,071125,,,A,V*0B
$GNRMC,112925.00,A,1254.027500,N,8005.626500,E,0.45,17.640,071125,,,A,V*0B
$GNRMC,112926.000,A,1254.027600,N,8005.626500,E,0.08,50.560,071125,,,A,V*30
$GNRMC,112926.00,A,1254.027600,N,8005.626500,E,0.08,17.640,071125,,,A,V*02
$GNRMC,112926.00,A,1254.027600,N,8005.626500,E,0.08,17.640,071125,,,A,V*02
$GNRMC,112927.000,A,1254.027500,N,8005.626600,E,0.14,105.280,071125,,,A,V*04
$GNRMC,112927.00,A,1254.027500,N,8005.626600,E,0.14,17.640,071125,,,A,V*0E
$GNRMC,112927.00,A,1254.027500,N,8005.626600,E,0.14,17.640,071125,,,A,V*0E
$GNRMC,112928.000,A,1254.027400,N,8005.626700,E,0.04,87.260,071125,,,A,V*3F
$GNRMC,112928.00,A,1254.027400,N,8005.626700,E,0.04,17.640,071125,,,A,V*00
$GNRMC,112928.00,A,1254.027400,N,8005.626700,E,0.04,17.640,071125,,,A,V*00
$GNRMC,112929.000,A,1254.027400,N,8005.626700,E,0.06,200.410,071125,,,A,V*00
$GNRMC,112929.00,A,1254.027400,N,8005.626700,E,0.06,17.640,071125,,,A,V*03
$GNRMC,112929.00,A,1254.027400,N,8005.626700,E,0.06,17.640,071125,,,A,V*03
$GNRMC,112930.000,A,1254.027400,N,8005.626700,E,0.43,26.580,071125,,,A,V*37
$GNRMC,112930.00,A,1254.027400,N,8005.626700,E,0.43,26.580,071125,,,A,V*07
$GNRMC,112930.00,A,1254.027400,N,8005.626700,E,0.43,26.580,071125,,,A,V*07
$GNRMC,112931.000,A,1254.027400,N,8005.626700,E,0.68,186.530,071125,,,A,V*0F
$GNRMC,112931.00,A,1254.027400,N,8005.626700,E,0.68,186.530,071125,,,A,V*3F
$GNRMC,112931.00,A,1254.027400,N,8005.626700,E,0.68,186.530,071125,,,A,V*3F
$GNRMC,112932.000,A,1254.027200,N,8005.626700,E,0.73,189.560,071125,,,A,V*0A
$GNRMC,112932.00,A,1254.027200,N,8005.626700,E,0.73,189.560,071125,,,A,V*3A
$GNRMC,112932.00,A,1254.027200,N,8005.626700,E,0.73,189.560,071125,,,A,V*3A
$GNRMC,112933.000,A,1254.027000,N,8005.626600,E,0.48,223.950,071125,,,A,V*0C
$GNRMC,112933.00,A,1254.027000,N,8005.626600,E,0.48,223.950,071125,,,A,V*3C
$GNRMC,112933.00,A,1254.027000,N,8005.626600,E,0.48,223.950,071125,,,A,V*3C
$GNRMC,112934.000,A,1254.026800,N,8005.626500,E,0.64,231.980,071125,,,A,V*01
$GNRMC,112934.00,A,1254.026800,N,8005.626500,E,0.64,231.980,071125,,,A,V*31
$GNRMC,112934.00,A,1254.026800,N,8005.626500,E,0.64,231.980,071125,,,A,V*31
$GNRMC,112935.000,A,1254.026600,N,8005.626400,E,0.59,229.350,071125,,,A,V*0F
$GNRMC,112935.00,A,1254.026600,N,8005.626400,E,0.59,229.350,071125,,,A,V*3F
$GNRMC,112935.00,A,1254.026600,N,8005.626400,E,0.59,229.350,071125,,,A,V*3F
$GNRMC,112936.000,A,1254.026400,N,8005.626400,E,0.29,217.330,071125,,,A,V*02
$GNRMC,112936.00,A,1254.026400,N,8005.626400,E,0.29,229.350,071125,,,A,V*39
$GNRMC,112936.00,A,1254.026400,N,8005.626400,E,0.29,229.350,071125,,,A,V*39
$GNRMC,112937.000,A,1254.026100,N,8005.626400,E,0.46,213.100,071125,,,A,V*0A
$GNRMC,112937.00,A,1254.026100,N,8005.626400,E,0.46,213.100,071125,,,A,V*3A
$GNRMC,112937.00,A,1254.026100,N,8005.626400,E,0.46,213.100,071125,,,A,V*3A
$GNRMC,112938.000,A,1254.025900,N,8005.626300,E,0.33,201.340,071125,,,A,V*0E
$GNRMC,112938.00,A,1254.025900,N,8005.626300,E,0.33,201.340,071125,,,A,V*3E
$GNRMC,112938.00,A,1254.025900,N,8005.626300,E,0.33,201.340,071125,,,A,V*3E
$GNRMC,112939.000,A,1254.025900,N,8005.626400,E,0.03,126.950,071125,,,A,V*06
$GNRMC,112939.00,A,1254.025900,N,8005.626400,E,0.03,201.340,071125,,,A,V*3B
$GNRMC,112939.00,A,1254.025900,N,8005.626400,E,0.03,201.340,071125,,,A,V*3B
$GNRMC,112940.000,A,1254.025900,N,8005.626400,E,0.03,117.290,071125,,,A,V*0D
$GNRMC,112940.00,A,1254.025900,N,8005.626400,E,0.03,201.340,071125,,,A,V*35
$GNRMC,112940.00,A,1254.025900,N,8005.626400,E,0.03,201.340,071125,,,A,V*35
$GNRMC,112941.000,A,1254.025800,N,8005.626500,E,0.02,110.880,071125,,,A,V*01
$GNRMC,112941.00,A,1254.025800,N,8005.626500,E,0.02,201.340,071125,,,A,V*35
$GNRMC,112941.00,A,1254.025800,N,8005.626500,E,0.02,201.340,071125,,,A,V*35
$GNRMC,112942.000,A,1254.025600,N,8005.626500,E,0.11,60.290,071125,,,A,V*33
$GNRMC,112942.00,A,1254.025600,N,8005.626500,E,0.11,201.340,071125,,,A,V*3A
$GNRMC,112942.00,A,1254.025600,N,8005.626500,E,0.11,201.340,071125,,,A,V*3A
$GNRMC,112943.000,A,1254.025500,N,8005.626500,E,0.03,45.060,071125,,,A,V*38
$GNRMC,112943.00,A,1254.025500,N,8005.626500,E,0.03,201.340,071125,,,A,V*3B
$GNRMC,112943.00,A,1254.025500,N,8005.626500,E,0.03,201.340,071125,,,A,V*3B
$GNRMC,112944.000,A,1254.025500,N,8005.626500,E,0.08,45.320,071125,,,A,V*33
$GNRMC,112944.00,A,1254.025500,N,8005.626500,E,0.08,201.340,071125,,,A,V*37
$GNRMC,112944.00,A,1254.025500,N,8005.626500,E,0.08,201.340,071125,,,A,V*37
$GNRMC,112945.000,A,1254.025500,N,8005.626600,E,0.23,212.060,071125,,,A,V*0F
$GNRMC,112945.00,A,1254.025500,N,8005.626600,E,0.23,201.340,071125,,,A,V*3C
$GNRMC,112945.00,A,1254.025500,N,8005.626600,E,0.23,201.340,071125,,,A,V*3C
$GNRMC,112946.000,A,1254.025500,N,8005.626600,E,1.20,172.530,071125,,,A,V*0B
$GNRMC,112946.00,A,1254.025500,N,8005.626600,E,1.20,172.530,071125,,,A,V*3B
$GNRMC,112946.00,A,1254.025500,N,8005.626600,E,1.20,172.530,071125,,,A,V*3B
$GNRMC,112947.000,A,1254.025100,N,8005.626600,E,0.02,291.410,071125,,,A,V*02
$GNRMC,112947.00,A,1254.025100,N,8005.626600,E,0.02,172.530,071125,,,A,V*3F
$GNRMC,112947.00,A,1254.025100,N,8005.626600,E,0.02,172.530,071125,,,A,V*3F
$GNRMC,112948.000,A,1254.025000,N,8005.626600,E,0.27,172.940,071125,,,A,V*0D
$GNRMC,112948.00,A,1254.025000,N,8005.626600,E,0.27,172.530,071125,,,A,V*36
$GNRMC,112948.00,A,1254.025000,N,8005.626600,E,0.27,172.530,071125,,,A,V*36
$GNRMC,112949.000,A,1254.024900,N,8005.626600,E,0.00,60.190,071125,,,A,V*36
$GNRMC,112949.00,A,1254.024900,N,8005.626600,E,0.00,172.530,071125,,,A,V*3A
$GNRMC,112949.00,A,1254.024900,N,8005.626600,E,0.00,172.530,071125,,,A,V*3A
$GNRMC,112950.000,A,1254.024900,N,8005.626600,E,0.08,197.480,071125,,,A,V*0B
$GNRMC,112950.00,A,1254.024900,N,8005.626600,E,0.08,172.530,071125,,,A,V*3A
$GNRMC,112950.00,A,1254.024900,N,8005.626600,E,0.08,172.530,071125,,,A,V*3A
$GNRMC,112951.000,A,1254.025100,N,8005.626800,E,1.25,36.840,071125,,,A,V*39
$GNRMC,112951.00,A,1254.025100,N,8005.626800,E,1.25,36.840,071125,,,A,V*09
$GNRMC,112951.00,A,1254.025100,N,8005.626800,E,1.25,36.840,071125,,,A,V*09
$GNRMC,112952.000,A,1254.025200,N,8005.626900,E,0.02,338.200,071125,,,A,V*0F
$GNRMC,112952.00,A,1254.025200,N,8005.626900,E,0.02,36.840,071125,,,A,V*0C
$GNRMC,112952.00,A,1254.025200,N,8005.626900,E,0.02,36.840,071125,,,A,V*0C
$GNRMC,112953.000,A,1254.025200,N,8005.626900,E,0.09,208.940,071125,,,A,V*08
$GNRMC,112953.00,A,1254.025200,N,8005.626900,E,0.09,36.840,071125,,,A,V*06
$GNRMC,112953.00,A,1254.025200,N,8005.626900,E,0.09,36.840,071125,,,A,V*06
$GNRMC,112954.000,A,1254.025200,N,8005.626900,E,0.21,263.980,071125,,,A,V*04
$GNRMC,112954.00,A,1254.025200,N,8005.626900,E,0.21,36.840,071125,,,A,V*0B
$GNRMC,112954.00,A,1254.025200,N,8005.626900,E,0.21,36.840,071125,,,A,V*0B
$GNRMC,112955.000,A,1254.025300,N,8005.627000,E,0.12,36.490,071125,,,A,V*32
$GNRMC,112955.00,A,1254.025300,N,8005.627000,E,0.12,36.840,071125,,,A,V*03
$GNRMC,112955.00,A,1254.025300,N,8005.627000,E,0.12,36.840,071125,,,A,V*03
$GNRMC,112956.000,A,1254.025300,N,8005.627100,E,0.04,160.400,071125,,,A,V*0C
$GNRMC,112956.00,A,1254.025300,N,8005.627100,E,0.04,36.840,071125,,,A,V*06
$GNRMC,112956.00,A,1254.025300,N,8005.627100,E,0.04,36.840,071125,,,A,V*06
$GNRMC,112957.000,A,1254.025300,N,8005.627100,E,0.09,68.650,071125,,,A,V*3E
$GNRMC,112957.00,A,1254.025300,N,8005.627100,E,0.09,36.840,071125,,,A,V*0A
$GNRMC,112957.00,A,1254.025300,N,8005.627100,E,0.09,36.840,071125,,,A,V*0A
$GNRMC,112958.000,A,1254.025300,N,8005.627100,E,0.33,267.360,071125,,,A,V*03
$GNRMC,112958.00,A,1254.025300,N,8005.627100,E,0.33,267.360,071125,,,A,V*33
$GNRMC,112958.00,A,1254.025300,N,8005.627100,E,0.33,267.360,071125,,,A,V*33
$GNRMC,112959.000,A,1254.025300,N,8005.627100,E,0.15,229.910,071125,,,A,V*01
$GNRMC,112959.00,A,1254.025300,N,8005.627100,E,0.15,267.360,071125,,,A,V*36
$GNRMC,112959.00,A,1254.025300,N,8005.627100,E,0.15,267.360,071125,,,A,V*36
$GNRMC,113000.000,A,1254.025200,N,8005.627000,E,0.59,228.480,071125,,,A,V*08
$GNRMC,113000.00,A,1254.025200,N,8005.627000,E,0.59,228.480,071125,,,A,V*38
$GNRMC,113000.00,A,1254.025200,N,8005.627000,E,0.59,228.480,071125,,,A,V*38
$GNRMC,113001.000,A,1254.025100,N,8005.627000,E,0.16,176.850,071125,,,A,V*08
$GNRMC,113001.00,A,1254.025100,N,8005.627000,E,0.16,228.480,071125,,,A,V*31
$GNRMC,113001.00,A,1254.025100,N,8005.627000,E,0.16,228.480,071125,,,A,V*31
$GNRMC,113002.000,A,1254.025100,N,8005.627100,E,0.13,153.890,071125,,,A,V*04
$GNRMC,113002.00,A,1254.025100,N,8005.627100,E,0.13,228.480,071125,,,A,V*36
$GNRMC,113002.00,A,1254.025100,N,8005.627100,E,0.13,228.480,071125,,,A,V*36
$GNRMC,113003.000,A,1254.024900,N,8005.627200,E,0.07,123.660,071125,,,D,V*09
$GNRMC,113003.00,A,1254.024900,N,8005.627200,E,0.07,228.480,071125,,,D,V*3D
$GNRMC,113003.00,A,1254.024900,N,8005.627200,E,0.07,228.480,071125,,,D,V*3D
$GNRMC,113004.000,A,1254.024800,N,8005.627400,E,0.11,133.960,071125,,,D,V*00
$GNRMC,113004.00,A,1254.024800,N,8005.627400,E,0.11,228.480,071125,,,D,V*3A
$GNRMC,113004.00,A,1254.024800,N,8005.627400,E,0.11,228.480,071125,,,D,V*3A
$GNRMC,113005.000,A,1254.024600,N,8005.627300,E,0.08,179.380,071125,,,D,V*0A
$GNRMC,113005.00,A,1254.024600,N,8005.627300,E,0.08,228.480,071125,,,D,V*3A
$GNRMC,113005.00,A,1254.024600,N,8005.627300,E,0.08,228.480,071125,,,D,V*3A
$GNRMC,113006.000,A,1254.024500,N,8005.627300,E,0.14,197.810,071125,,,D,V*05
$GNRMC,113006.00,A,1254.024500,N,8005.627300,E,0.14,228.480,071125,,,D,V*37
$GNRMC,113006.00,A,1254.024500,N,8005.627300,E,0.14,228.480,071125,,,D,V*37
$GNRMC,113007.000,A,1254.024300,N,8005.627200,E,0.14,185.030,071125,,,D,V*0A
$GNRMC,113007.00,A,1254.024300,N,8005.627200,E,0.14,228.480,071125,,,D,V*31
$GNRMC,113007.00,A,1254.024300,N,8005.627200,E,0.14,228.480,071125,,,D,V*31
$GNRMC,113008.000,A,1254.024200,N,8005.627200,E,0.17,181.090,071125,,,D,V*09
$GNRMC,113008.00,A,1254.024200,N,8005.627200,E,0.17,228.480,071125,,,D,V*3C
$GNRMC,113008.00,A,1254.024200,N,8005.627200,E,0.17,228.480,071125,,,D,V*3C
$GNRMC,113009.000,A,1254.024100,N,8005.627200,E,0.08,165.990,071125,,,D,V*06
$GNRMC,113009.00,A,1254.024100,N,8005.627200,E,0.08,228.480,071125,,,D,V*30
$GNRMC,113009.00,A,1254.024100,N,8005.627200,E,0.08,228.480,071125,,,D,V*30
$GNRMC,113010.000,A,1254.024000,N,8005.627200,E,0.08,223.690,071125,,,D,V*01
$GNRMC,113010.00,A,1254.024000,N,8005.627200,E,0.08,228.480,071125,,,D,V*39
$GNRMC,113010.00,A,1254.024000,N,8005.627200,E,0.08,228.480,071125,,,D,V*39
$GNRMC,113011.000,A,1254.024100,N,8005.627300,E,0.16,120.810,071125,,,D,V*09
$GNRMC,113011.00,A,1254.024100,N,8005.627300,E,0.16,228.480,071125,,,D,V*37
$GNRMC,113011.00,A,1254.024100,N,8005.627300,E,0.16,228.480,071125,,,D,V*37
$GNRMC,113012.000,A,1254.024000,N,8005.627400,E,0.17,116.570,071125,,,D,V*03
$GNRMC,113012.00,A,1254.024000,N,8005.627400,E,0.17,228.480,071125,,,D,V*33
$GNRMC,113012.00,A,1254.024000,N,8005.627400,E,0.17,228.480,071125,,,D,V*33
$GNRMC,113013.000,A,1254.024000,N,8005.627300,E,0.05,132.740,071125,,,D,V*01
$GNRMC,113013.00,A,1254.024000,N,8005.627300,E,0.05,228.480,071125,,,D,V*36
$GNRMC,113013.00,A,1254.024000,N,8005.627300,E,0.05,228.480,071125,,,D,V*36
$GNRMC,113014.000,A,1254.023900,N,8005.627300,E,0.07,115.140,071125,,,D,V*09
$GNRMC,113014.00,A,1254.023900,N,8005.627300,E,0.07,228.480,071125,,,D,V*3D
$GNRMC,113014.00,A,1254.023900,N,8005.627300,E,0.07,228.480,071125,,,D,V*3D
$GNRMC,113015.000,A,1254.023900,N,8005.627200,E,0.06,340.840,071125,,,D,V*03
$GNRMC,113015.00,A,1254.023900,N,8005.627200,E,0.06,228.480,071125,,,D,V*3C
$GNRMC,113015.00,A,1254.023900,N,8005.627200,E,0.06,228.480,071125,,,D,V*3C
$GNRMC,113016.000,A,1254.023900,N,8005.627200,E,0.06,6.600,071125,,,D,V*0B
$GNRMC,113016.00,A,1254.023900,N,8005.627200,E,0.06,228.480,071125,,,D,V*3F
$GNRMC,113016.00,A,1254.023900,N,8005.627200,E,0.06,228.480,071125,,,D,V*3F
$GNRMC,113017.000,A,1254.023800,N,8005.627200,E,0.03,319.120,071125,,,D,V*06
$GNRMC,113017.00,A,1254.023800,N,8005.627200,E,0.03,228.480,071125,,,D,V*3A
$GNRMC,113017.00,A,1254.023800,N,8005.627200,E,0.03,228.480,071125,,,D,V*3A
$GNRMC,113018.000,A,1254.023500,N,8005.627400,E,0.23,137.380,071125,,,D,V*06
$GNRMC,113018.00,A,1254.023500,N,8005.627400,E,0.23,228.480,071125,,,D,V*3C
$GNRMC,113018.00,A,1254.023500,N,8005.627400,E,0.23,228.480,071125,,,D,V*3C
$GNRMC,113019.000,A,1254.023300,N,8005.627500,E,0.37,135.590,071125,,,D,V*00
$GNRMC,113019.00,A,1254.023300,N,8005.627500,E,0.37,135.590,071125,,,D,V*30
$GNRMC,113019.00,A,1254.023300,N,8005.627500,E,0.37,135.590,071125,,,D,V*30
$GNRMC,113020.000,A,1254.023200,N,8005.627600,E,0.33,139.330,071125,,,D,V*0C
$GNRMC,113020.00,A,1254.023200,N,8005.627600,E,0.33,139.330,071125,,,D,V*3C
$GNRMC,113020.00,A,1254.023200,N,8005.627600,E,0.33,139.330,071125,,,D,V*3C
$GNRMC,113021.000,A,1254.023200,N,8005.627500,E,0.12,226.790,071125,,,D,V*0E
$GNRMC,113021.00,A,1254.023200,N,8005.627500,E,0.12,139.330,071125,,,D,V*3D
$GNRMC,113021.00,A,1254.023200,N,8005.627500,E,0.12,139.330,071125,,,D,V*3D
$GNRMC,113022.000,A,1254.023300,N,8005.627500,E,0.11,230.000,071125,,,D,V*06
$GNRMC,113022.00,A,1254.023300,N,8005.627500,E,0.11,139.330,071125,,,D,V*3C
$GNRMC,113022.00,A,1254.023300,N,8005.627500,E,0.11,139.330,071125,,,D,V*3C
$GNRMC,113023.000,A,1254.023300,N,8005.627400,E,0.12,162.760,071125,,,D,V*00
$GNRMC,113023.00,A,1254.023300,N,8005.627400,E,0.12,139.330,071125,,,D,V*3F
$GNRMC,113023.00,A,1254.023300,N,8005.627400,E,0.12,139.330,071125,,,D,V*3F
$GNRMC,113024.000,A,1254.023400,N,8005.627400,E,0.12,216.420,071125,,,D,V*07
$GNRMC,113024.00,A,1254.023400,N,8005.627400,E,0.12,139.330,071125,,,D,V*3F
$GNRMC,113024.00,A,1254.023400,N,8005.627400,E,0.12,139.330,071125,,,D,V*3F
$GNRMC,113025.000,A,1254.023800,N,8005.627300,E,1.24,350.040,071125,,,D,V*08
$GNRMC,113025.00,A,1254.023800,N,8005.627300,E,1.24,350.040,071125,,,D,V*38
$GNRMC,113025.00,A,1254.023800,N,8005.627300,E,1.24,350.040,071125,,,D,V*38
$GNRMC,113026.000,A,1254.023700,N,8005.627300,E,0.59,170.940,071125,,,D,V*06
$GNRMC,113026.00,A,1254.023700,N,8005.627300,E,0.59,170.940,071125,,,D,V*36
$GNRMC,113026.00,A,1254.023700,N,8005.627300,E,0.59,170.940,071125,,,D,V*36
$GNRMC,113027.000,A,1254.023600,N,8005.627200,E,0.30,225.740,071125,,,D,V*05
$GNRMC,113027.00,A,1254.023600,N,8005.627200,E,0.30,225.740,071125,,,D,V*35
$GNRMC,113027.00,A,1254.023600,N,8005.627200,E,0.30,225.740,071125,,,D,V*35
$GNRMC,113028.000,A,1254.023700,N,8005.627100,E,0.22,349.720,071125,,,D,V*06
$GNRMC,113028.00,A,1254.023700,N,8005.627100,E,0.22,225.740,071125,,,D,V*3B
$GNRMC,113028.00,A,1254.023700,N,8005.627100,E,0.22,225.740,071125,,,D,V*3B
$GNRMC,113029.000,A,1254.023800,N,8005.626900,E,0.52,359.630,071125,,,D,V*07
$GNRMC,113029.00,A,1254.023800,N,8005.626900,E,0.52,359.630,071125,,,D,V*37
$GNRMC,113029.00,A,1254.023800,N,8005.626900,E,0.52,359.630,071125,,,D,V*37
$GNRMC,113030.000,A,1254.023900,N,8005.626600,E,0.25,2.660,071125,,,D,V*09
$GNRMC,113030.00,A,1254.023900,N,8005.626600,E,0.25,359.630,071125,,,D,V*31
$GNRMC,113030.00,A,1254.023900,N,8005.626600,E,0.25,359.630,071125,,,D,V*31
$GNRMC,113031.000,A,1254.023700,N,8005.626400,E,0.22,43.540,071125,,,D,V*37
$GNRMC,113031.00,A,1254.023700,N,8005.626400,E,0.22,359.630,071125,,,D,V*3B
$GNRMC,113031.00,A,1254.023700,N,8005.626400,E,0.22,359.630,071125,,,D,V*3B
$GNRMC,113032.000,A,1254.023600,N,8005.626400,E,0.27,59.750,071125,,,D,V*38
$GNRMC,113032.00,A,1254.023600,N,8005.626400,E,0.27,359.630,071125,,,D,V*3C
$GNRMC,113032.00,A,1254.023600,N,8005.626400,E,0.27,359.630,071125,,,D,V*3C
$GNRMC,113033.000,A,1254.023400,N,8005.626400,E,0.08,83.070,071125,,,D,V*34
$GNRMC,113033.00,A,1254.023400,N,8005.626400,E,0.08,359.630,071125,,,D,V*32
$GNRMC,113033.00,A,1254.023400,N,8005.626400,E,0.08,359.630,071125,,,D,V*32
$GNRMC,113034.000,A,1254.023200,N,8005.626200,E,0.11,223.430,071125,,,D,V*03
$GNRMC,113034.00,A,1254.023200,N,8005.626200,E,0.11,359.630,071125,,,D,V*3D
$GNRMC,113034.00,A,1254.023200,N,8005.626200,E,0.11,359.630,071125,,,D,V*3D
$GNRMC,113035.000,A,1254.023200,N,8005.626200,E,0.10,99.770,071125,,,D,V*37
$GNRMC,113035.00,A,1254.023200,N,8005.626200,E,0.10,359.630,071125,,,D,V*3D
$GNRMC,113035.00,A,1254.023200,N,8005.626200,E,0.10,359.630,071125,,,D,V*3D
$GNRMC,113036.000,A,1254.023100,N,8005.626200,E,0.08,184.010,071125,,,D,V*02
$GNRMC,113036.00,A,1254.023100,N,8005.626200,E,0.08,359.630,071125,,,D,V*34
$GNRMC,113036.00,A,1254.023100,N,8005.626200,E,0.08,359.630,071125,,,D,V*34
$GNRMC,113037.000,A,1254.022900,N,8005.626100,E,0.22,134.360,071125,,,D,V*0E
$GNRMC,113037.00,A,1254.022900,N,8005.626100,E,0.22,359.630,071125,,,D,V*37
$GNRMC,113037.00,A,1254.022900,N,8005.626100,E,0.22,359.630,071125,,,D,V*37
$GNRMC,113038.000,A,1254.022700,N,8005.626200,E,0.33,130.230,071125,,,D,V*0C
$GNRMC,113038.00,A,1254.022700,N,8005.626200,E,0.33,130.230,071125,,,D,V*3C
$GNRMC,113038.00,A,1254.022700,N,8005.626200,E,0.33,130.230,071125,,,D,V*3C
$GNRMC,113039.000,A,1254.022700,N,8005.626300,E,0.04,287.950,071125,,,D,V*0A
$GNRMC,113039.00,A,1254.022700,N,8005.626300,E,0.04,130.230,071125,,,D,V*38
$GNRMC,113039.00,A,1254.022700,N,8005.626300,E,0.04,130.230,071125,,,D,V*38
$GNRMC,113040.000,A,1254.022600,N,8005.626400,E,0.06,258.690,071125,,,D,V*01
$GNRMC,113040.00,A,1254.022600,N,8005.626400,E,0.06,130.230,071125,,,D,V*32
$GNRMC,113040.00,A,1254.022600,N,8005.626400,E,0.06,130.230,071125,,,D,V*32
$GNRMC,113041.000,A,1254.022500,N,8005.626500,E,0.06,246.290,071125,,,D,V*09
$GNRMC,113041.00,A,1254.022500,N,8005.626500,E,0.06,130.230,071125,,,D,V*31
$GNRMC,113041.00,A,1254.022500,N,8005.626500,E,0.06,130.230,071125,,,D,V*31
$GNRMC,113042.000,A,1254.022500,N,8005.626500,E,0.07,234.570,071125,,,D,V*07
$GNRMC,113042.00,A,1254.022500,N,8005.626500,E,0.07,130.230,071125,,,D,V*33
$GNRMC,113042.00,A,1254.022500,N,8005.626500,E,0.07,130.230,071125,,,D,V*33
$GNRMC,113043.000,A,1254.022500,N,8005.626500,E,0.12,256.670,071125,,,D,V*05
$GNRMC,113043.00,A,1254.022500,N,8005.626500,E,0.12,130.230,071125,,,D,V*36
$GNRMC,113043.00,A,1254.022500,N,8005.626500,E,0.12,130.230,071125,,,D,V*36
$GNRMC,113044.000,A,1254.022500,N,8005.626500,E,0.08,359.690,071125,,,D,V*09
$GNRMC,113044.00,A,1254.022500,N,8005.626500,E,0.08,130.230,071125,,,D,V*3A
$GNRMC,113044.00,A,1254.022500,N,8005.626500,E,0.08,130.230,071125,,,D,V*3A
$GNRMC,113045.000,A,1254.022600,N,8005.626400,E,0.14,283.510,071125,,,D,V*0A
$GNRMC,113045.00,A,1254.022600,N,8005.626400,E,0.14,130.230,071125,,,D,V*34
$GNRMC,113045.00,A,1254.022600,N,8005.626400,E,0.14,130.230,071125,,,D,V*34
$GNRMC,113046.000,A,1254.022600,N,8005.626400,E,0.27,275.110,071125,,,D,V*04
$GNRMC,113046.00,A,1254.022600,N,8005.626400,E,0.27,130.230,071125,,,D,V*37
$GNRMC,113046.00,A,1254.022600,N,8005.626400,E,0.27,130.230,071125,,,D,V*37
$GNRMC,113047.000,A,1254.022600,N,8005.626300,E,0.22,143.210,071125,,,D,V*02
$GNRMC,113047.00,A,1254.022600,N,8005.626300,E,0.22,130.230,071125,,,D,V*34
$GNRMC,113047.00,A,1254.022600,N,8005.626300,E,0.22,130.230,071125,,,D,V*34
$GNRMC,113048.000,A,1254.022600,N,8005.626300,E,0.23,138.320,071125,,,D,V*02
$GNRMC,113048.00,A,1254.022600,N,8005.626300,E,0.23,130.230,071125,,,D,V*3A
$GNRMC,113048.00,A,1254.022600,N,8005.626300,E,0.23,130.230,071125,,,D,V*3A
$GNRMC,113049.000,A,1254.022600,N,8005.626400,E,0.12,20.280,071125,,,D,V*35
$GNRMC,113049.00,A,1254.022600,N,8005.626400,E,0.12,130.230,071125,,,D,V*3E
$GNRMC,113049.00,A,1254.022600,N,8005.626400,E,0.12,130.230,071125,,,D,V*3E
$GNRMC,113050.000,A,1254.022600,N,8005.626400,E,0.19,236.400,071125,,,D,V*0D
$GNRMC,113050.00,A,1254.022600,N,8005.626400,E,0.19,130.230,071125,,,D,V*3D
$GNRMC,113050.00,A,1254.022600,N,8005.626400,E,0.19,130.230,071125,,,D,V*3D
$GNRMC,113051.000,A,1254.022600,N,8005.626300,E,1.11,10.540,071125,,,D,V*31
$GNRMC,113051.00,A,1254.022600,N,8005.626300,E,1.11,10.540,071125,,,D,V*01
$GNRMC,113051.00,A,1254.022600,N,8005.626300,E,1.11,10.540,071125,,,D,V*01
$GNRMC,113052.000,A,1254.022800,N,8005.626400,E,0.75,194.790,071125,,,D,V*0A
$GNRMC,113052.00,A,1254.022800,N,8005.626400,E,0.75,194.790,071125,,,D,V*3A
$GNRMC,113052.00,A,1254.022800,N,8005.626400,E,0.75,194.790,071125,,,D,V*3A
$GNRMC,113053.000,A,1254.022700,N,8005.626400,E,0.25,183.470,071125,,,D,V*0A
$GNRMC,113053.00,A,1254.022700,N,8005.626400,E,0.25,194.790,071125,,,D,V*31
$GNRMC,113053.00,A,1254.022700,N,8005.626400,E,0.25,194.790,071125,,,D,V*31
$GNRMC,113054.000,A,1254.022700,N,8005.626400,E,0.15,130.410,071125,,,D,V*00
$GNRMC,113054.00,A,1254.022700,N,8005.626400,E,0.15,194.790,071125,,,D,V*35
$GNRMC,113054.00,A,1254.022700,N,8005.626400,E,0.15,194.790,071125,,,D,V*35
$GNRMC,113055.000,A,1254.022700,N,8005.626500,E,0.03,134.850,071125,,,D,V*0B
$GNRMC,113055.00,A,1254.022700,N,8005.626500,E,0.03,194.790,071125,,,D,V*32
$GNRMC,113055.00,A,1254.022700,N,8005.626500,E,0.03,194.790,071125,,,D,V*32
$GNRMC,113056.000,A,1254.023200,N,8005.626600,E,2.53,10.250,071125,,,D,V*35
$GNRMC,113056.00,A,1254.023200,N,8005.626600,E,2.53,10.250,071125,,,D,V*05
$GNRMC,113056.00,A,1254.023200,N,8005.626600,E,2.53,10.250,071125,,,D,V*05
$GNRMC,113057.000,A,1254.023900,N,8005.626600,E,2.86,358.320,071125,,,D,V*0E
$GNRMC,113057.00,A,1254.023900,N,8005.626600,E,2.86,358.320,071125,,,D,V*3E
$GNRMC,113057.00,A,1254.023900,N,8005.626600,E,2.86,358.320,071125,,,D,V*3E
$GNRMC,113058.000,A,1254.024200,N,8005.626700,E,0.10,97.380,071125,,,D,V*3B
$GNRMC,113058.00,A,1254.024200,N,8005.626700,E,0.10,358.320,071125,,,D,V*31
$GNRMC,113058.00,A,1254.024200,N,8005.626700,E,0.10,358.320,071125,,,D,V*31
$GNRMC,113059.000,A,1254.024400,N,8005.626800,E,0.14,92.760,071125,,,D,V*38
$GNRMC,113059.00,A,1254.024400,N,8005.626800,E,0.14,358.320,071125,,,D,V*3D
$GNRMC,113059.00,A,1254.024400,N,8005.626800,E,0.14,358.320,071125,,,D,V*3D
$GNRMC,113100.000,A,1254.024600,N,8005.627000,E,0.10,18.270,071125,,,D,V*3C
$GNRMC,113100.00,A,1254.024600,N,8005.627000,E,0.10,358.320,071125,,,D,V*3F
$GNRMC,113100.00,A,1254.024600,N,8005.627000,E,0.10,358.320,071125,,,D,V*3F
$GNRMC,113101.000,A,1254.024800,N,8005.627200,E,0.06,20.870,071125,,,D,V*37
$GNRMC,113101.00,A,1254.024800,N,8005.627200,E,0.06,358.320,071125,,,D,V*35
$GNRMC,113101.00,A,1254.024800,N,8005.627200,E,0.06,358.320,071125,,,D,V*35
$GNRMC,113102.000,A,1254.025000,N,8005.627400,E,0.15,37.410,071125,,,D,V*35
$GNRMC,113102.00,A,1254.025000,N,8005.627400,E,0.15,358.320,071125,,,D,V*3B
$GNRMC,113102.00,A,1254.025000,N,8005.627400,E,0.15,358.320,071125,,,D,V*3B
$GNRMC,113103.000,A,1254.025200,N,8005.627600,E,0.60,24.230,071125,,,D,V*30
$GNRMC,113103.00,A,1254.025200,N,8005.627600,E,0.60,24.230,071125,,,D,V*00
$GNRMC,113103.00,A,1254.025200,N,8005.627600,E,0.60,24.230,071125,,,D,V*00
$GNRMC,113104.000,A,1254.025500,N,8005.627700,E,1.52,40.960,071125,,,D,V*3D
$GNRMC,113104.00,A,1254.025500,N,8005.627700,E,1.52,40.960,071125,,,D,V*0D
$GNRMC,113104.00,A,1254.025500,N,8005.627700,E,1.52,40.960,071125,,,D,V*0D
$GNRMC,113105.000,A,1254.026000,N,8005.627700,E,0.32,328.340,071125,,,D,V*08
$GNRMC,113105.00,A,1254.026000,N,8005.627700,E,0.32,328.340,071125,,,D,V*38
$GNRMC,113105.00,A,1254.026000,N,8005.627700,E,0.32,328.340,071125,,,D,V*38
$GNRMC,113106.000,A,1254.026300,N,8005.627500,E,0.20,330.840,071125,,,D,V*0B
$GNRMC,113106.00,A,1254.026300,N,8005.627500,E,0.20,328.340,071125,,,D,V*39
$GNRMC,113106.00,A,1254.026300,N,8005.627500,E,0.20,328.340,071125,,,D,V*39
$GNRMC,113107.000,A,1254.026300,N,8005.627500,E,0.23,312.330,071125,,,D,V*05
$GNRMC,113107.00,A,1254.026300,N,8005.627500,E,0.23,328.340,071125,,,D,V*3B
$GNRMC,113107.00,A,1254.026300,N,8005.627500,E,0.23,328.340,071125,,,D,V*3B
$GNRMC,113108.000,A,1254.026300,N,8005.627500,E,0.10,272.790,071125,,,D,V*03
$GNRMC,113108.00,A,1254.026300,N,8005.627500,E,0.10,328.340,071125,,,D,V*34
$GNRMC,113108.00,A,1254.026300,N,8005.627500,E,0.10,328.340,071125,,,D,V*34
$GNRMC,113109.000,A,1254.026200,N,8005.627500,E,0.03,317.830,071125,,,D,V*06
$GNRMC,113109.00,A,1254.026200,N,8005.627500,E,0.03,328.340,071125,,,D,V*36
$GNRMC,113109.00,A,1254.026200,N,8005.627500,E,0.03,328.340,071125,,,D,V*36
$GNRMC,113110.000,A,1254.026200,N,8005.627400,E,0.31,85.900,071125,,,D,V*34
$GNRMC,113110.00,A,1254.026200,N,8005.627400,E,0.31,85.900,071125,,,D,V*04
$GNRMC,113110.00,A,1254.026200,N,8005.627400,E,0.31,85.900,071125,,,D,V*04
$GNRMC,113111.000,A,1254.026200,N,8005.627500,E,0.44,75.650,071125,,,D,V*33
$GNRMC,113111.00,A,1254.026200,N,8005.627500,E,0.44,75.650,071125,,,D,V*03
$GNRMC,113111.00,A,1254.026200,N,8005.627500,E,0.44,75.650,071125,,,D,V*03
$GNRMC,113112.000,A,1254.026200,N,8005.627500,E,2.82,131.930,071125,,,D,V*00
$GNRMC,113112.00,A,1254.026200,N,8005.627500,E,2.82,131.930,071125,,,D,V*30
$GNRMC,113112.00,A,1254.026200,N,8005.627500,E,2.82,131.930,071125,,,D,V*30
$GNRMC,113113.000,A,1254.026000,N,8005.627700,E,1.41,160.120,071125,,,D,V*00
$GNRMC,113113.00,A,1254.026000,N,8005.627700,E,1.41,160.120,071125,,,D,V*30
$GNRMC,113113.00,A,1254.026000,N,8005.627700,E,1.41,160.120,071125,,,D,V*30
$GNRMC,113114.000,A,1254.025900,N,8005.627900,E,1.00,110.110,071125,,,D,V*02
$GNRMC,113114.00,A,1254.025900,N,8005.627900,E,1.00,110.110,071125,,,D,V*32
$GNRMC,113114.00,A,1254.025900,N,8005.627900,E,1.00,110.110,071125,,,D,V*32
$GNRMC,113115.000,A,1254.025700,N,8005.627900,E,0.65,189.250,071125,,,D,V*08
$GNRMC,113115.00,A,1254.025700,N,8005.627900,E,0.65,189.250,071125,,,D,V*38
$GNRMC,113115.00,A,1254.025700,N,8005.627900,E,0.65,189.250,071125,,,D,V*38
$GNRMC,113116.000,A,1254.025700,N,8005.627800,E,0.08,191.190,071125,,,D,V*07
$GNRMC,113116.00,A,1254.025700,N,8005.627800,E,0.08,189.250,071125,,,D,V*31
$GNRMC,113116.00,A,1254.025700,N,8005.627800,E,0.08,189.250,071125,,,D,V*31
$GNRMC,113117.000,A,1254.025700,N,8005.627700,E,0.08,311.000,071125,,,D,V*0B
$GNRMC,113117.00,A,1254.025700,N,8005.627700,E,0.08,189.250,071125,,,D,V*3F
$GNRMC,113117.00,A,1254.025700,N,8005.627700,E,0.08,189.250,071125,,,D,V*3F
$GNRMC,113118.000,A,1254.025800,N,8005.627600,E,0.10,310.620,071125,,,D,V*06
$GNRMC,113118.00,A,1254.025800,N,8005.627600,E,0.10,189.250,071125,,,D,V*37
$GNRMC,113118.00,A,1254.025800,N,8005.627600,E,0.10,189.250,071125,,,D,V*37
$GNRMC,113119.000,A,1254.025800,N,8005.627400,E,0.10,277.250,071125,,,D,V*06
$GNRMC,113119.00,A,1254.025800,N,8005.627400,E,0.10,189.250,071125,,,D,V*34
$GNRMC,113119.00,A,1254.025800,N,8005.627400,E,0.10,189.250,071125,,,D,V*34
$GNRMC,113120.000,A,1254.025900,N,8005.627300,E,0.06,290.670,071125,,,D,V*02
$GNRMC,113120.00,A,1254.025900,N,8005.627300,E,0.06,189.250,071125,,,D,V*3F
$GNRMC,113120.00,A,1254.025900,N,8005.627300,E,0.06,189.250,071125,,,D,V*3F
$GNRMC,113121.000,A,1254.025900,N,8005.627300,E,0.06,179.040,071125,,,D,V*02
$GNRMC,113121.00,A,1254.025900,N,8005.627300,E,0.06,189.250,071125,,,D,V*3E
$GNRMC,113121.00,A,1254.025900,N,8005.627300,E,0.06,189.250,071125,,,D,V*3E
$GNRMC,113122.000,A,1254.025900,N,8005.627200,E,0.05,305.020,071125,,,D,V*0C
$GNRMC,113122.00,A,1254.025900,N,8005.627200,E,0.05,189.250,071125,,,D,V*3F
$GNRMC,113122.00,A,1254.025900,N,8005.627200,E,0.05,189.250,071125,,,D,V*3F
$GNRMC,113123.000,A,1254.025900,N,8005.627200,E,0.91,322.400,071125,,,D,V*03
$GNRMC,113123.00,A,1254.025900,N,8005.627200,E,0.91,322.400,071125,,,D,V*33
$GNRMC,113123.00,A,1254.025900,N,8005.627200,E,0.91,322.400,071125,,,D,V*33
$GNRMC,113124.000,A,1254.026100,N,8005.627000,E,0.80,325.740,071125,,,D,V*0D
$GNRMC,113124.00,A,1254.026100,N,8005.627000,E,0.80,325.740,071125,,,D,V*3D
$GNRMC,113124.00,A,1254.026100,N,8005.627000,E,0.80,325.740,071125,,,D,V*3D
$GNRMC,113125.000,A,1254.026100,N,8005.627100,E,0.25,17.930,071125,,,D,V*39
$GNRMC,113125.00,A,1254.026100,N,8005.627100,E,0.25,325.740,071125,,,D,V*32
$GNRMC,113125.00,A,1254.026100,N,8005.627100,E,0.25,325.740,071125,,,D,V*32
$GNRMC,113126.000,A,1254.026100,N,8005.627100,E,0.16,101.270,071125,,,D,V*03
$GNRMC,113126.00,A,1254.026100,N,8005.627100,E,0.16,325.740,071125,,,D,V*31
$GNRMC,113126.00,A,1254.026100,N,8005.627100,E,0.16,325.740,071125,,,D,V*31
$GNRMC,113127.000,A,1254.026100,N,8005.627000,E,0.03,36.020,071125,,,D,V*35
$GNRMC,113127.00,A,1254.026100,N,8005.627000,E,0.03,325.740,071125,,,D,V*35
$GNRMC,113127.00,A,1254.026100,N,8005.627000,E,0.03,325.740,071125,,,D,V*35
$GNRMC,113128.000,A,1254.026200,N,8005.626900,E,0.20,15.550,071125,,,D,V*33
$GNRMC,113128.00,A,1254.026200,N,8005.626900,E,0.20,325.740,071125,,,D,V*30
$GNRMC,113128.00,A,1254.026200,N,8005.626900,E,0.20,325.740,071125,,,D,V*30
$GNRMC,113129.000,A,1254.026300,N,8005.626800,E,0.20,351.530,071125,,,D,V*07
$GNRMC,113129.00,A,1254.026300,N,8005.626800,E,0.20,325.740,071125,,,D,V*31
$GNRMC,113129.00,A,1254.026300,N,8005.626800,E,0.20,325.740,071125,,,D,V*31
$GNRMC,113130.000,A,1254.026300,N,8005.626900,E,0.56,257.500,071125,,,D,V*0B
$GNRMC,113130.00,A,1254.026300,N,8005.626900,E,0.56,257.500,071125,,,D,V*3B
$GNRMC,113130.00,A,1254.026300,N,8005.626900,E,0.56,257.500,071125,,,D,V*3B
$GNRMC,113131.000,A,1254.026300,N,8005.626700,E,0.76,272.860,071125,,,D,V*0A
$GNRMC,113131.00,A,1254.026300,N,8005.626700,E,0.76,272.860,071125,,,D,V*3A
$GNRMC,113131.00,A,1254.026300,N,8005.626700,E,0.76,272.860,071125,,,D,V*3A
$GNRMC,113132.000,A,1254.026300,N,8005.626600,E,1.04,277.040,071125,,,D,V*03
$GNRMC,113132.00,A,1254.026300,N,8005.626600,E,1.04,277.040,071125,,,D,V*33
$GNRMC,113132.00,A,1254.026300,N,8005.626600,E,1.04,277.040,071125,,,D,V*33
$GNRMC,113133.000,A,1254.026500,N,8005.626200,E,1.77,297.190,071125,,,D,V*06
$GNRMC,113133.00,A,1254.026500,N,8005.626200,E,1.77,297.190,071125,,,D,V*36
$GNRMC,113133.00,A,1254.026500,N,8005.626200,E,1.77,297.190,071125,,,D,V*36
$GNRMC,113134.000,A,1254.026400,N,8005.625800,E,1.67,266.360,071125,,,D,V*0B
$GNRMC,113134.00,A,1254.026400,N,8005.625800,E,1.67,266.360,071125,,,D,V*3B
$GNRMC,113134.00,A,1254.026400,N,8005.625800,E,1.67,266.360,071125,,,D,V*3B
$GNRMC,113135.000,A,1254.026000,N,8005.625500,E,0.66,161.420,071125,,,D,V*04
$GNRMC,113135.00,A,1254.026000,N,8005.625500,E,0.66,161.420,071125,,,D,V*34
$GNRMC,113135.00,A,1254.026000,N,8005.625500,E,0.66,161.420,071125,,,D,V*34
$GNRMC,113136.000,A,1254.025900,N,8005.625700,E,0.32,168.840,071125,,,D,V*0D
$GNRMC,113136.00,A,1254.025900,N,8005.625700,E,0.32,168.840,071125,,,D,V*3D
$GNRMC,113136.00,A,1254.025900,N,8005.625700,E,0.32,168.840,071125,,,D,V*3D
$GNRMC,113137.000,A,1254.025800,N,8005.625800,E,0.20,173.260,071125,,,D,V*03
$GNRMC,113137.00,A,1254.025800,N,8005.625800,E,0.20,168.840,071125,,,D,V*31
$GNRMC,113137.00,A,1254.025800,N,8005.625800,E,0.20,168.840,071125,,,D,V*31
$GNRMC,113138.000,A,1254.025700,N,8005.626100,E,0.18,168.800,071125,,,D,V*04
$GNRMC,113138.00,A,1254.025700,N,8005.626100,E,0.18,168.840,071125,,,D,V*30
$GNRMC,113138.00,A,1254.025700,N,8005.626100,E,0.18,168.840,071125,,,D,V*30
$GNRMC,113139.000,A,1254.025800,N,8005.626200,E,0.02,199.600,071125,,,D,V*02
$GNRMC,113139.00,A,1254.025800,N,8005.626200,E,0.02,168.840,071125,,,D,V*36
$GNRMC,113139.00,A,1254.025800,N,8005.626200,E,0.02,168.840,071125,,,D,V*36
$GNRMC,113140.000,A,1254.025900,N,8005.626300,E,0.02,207.840,071125,,,D,V*02
$GNRMC,113140.00,A,1254.025900,N,8005.626300,E,0.02,168.840,071125,,,D,V*38
$GNRMC,113140.00,A,1254.025900,N,8005.626300,E,0.02,168.840,071125,,,D,V*38
$GNRMC,113141.000,A,1254.025900,N,8005.626200,E,0.35,232.010,071125,,,D,V*0D
$GNRMC,113141.00,A,1254.025900,N,8005.626200,E,0.35,232.010,071125,,,D,V*3D
$GNRMC,113141.00,A,1254.025900,N,8005.626200,E,0.35,232.010,071125,,,D,V*3D
$GNRMC,113142.000,A,1254.026000,N,8005.626100,E,0.04,239.310,071125,,,D,V*0D
$GNRMC,113142.00,A,1254.026000,N,8005.626100,E,0.04,232.010,071125,,,D,V*35
