Search "GNRMC" (5593 hits in 16 files of 158 searched)
  C:\Users\Jramakr1\Downloads\scripts\vstgloballogcontrol_2025_11_7_17_30_6\main_8_2025_11_7_16_58_56 (294 hits)
	Line  39734: 11-07 16:57:14.452   670  1392 I MTK_ADR : module_daemon.c save_active_rmc_sentences 519 save_active_rmc_sentences activeRmc[$GNRMC,112716.620,A,1254.031800,N,8005.619700,E,7.66,83.980,071125,,,A,V*3D
	Line  39770: 11-07 16:57:14.470   706  1519 D android.hardware.gnss-service.mediatek: nmea [Visteon] [1762514836000] :: $GNRMC,112716.62,A,1254.031800,N,8005.619700,E,7.66,83.980,071125,,,A,V*0D
	Line  39797: 11-07 16:57:14.478  1778  2008 D CLUSTER_SERVICE: SampleClusterServiceImpl: nmeaData[0] contains RMC: $GNRMC,112716.62,A,1254.031800,N,8005.619700,E,7.66,83.980,071125,,,A,V*0D
	Line  41710: 11-07 16:57:50.099   670  1392 I MTK_ADR : module_daemon.c save_active_rmc_sentences 519 save_active_rmc_sentences activeRmc[$GNRMC,112717.626,A,1254.033600,N,8005.616600,E,6.26,83.980,071125,,,A,V*3D
	Line  41867: 11-07 16:57:50.139   706  1519 D android.hardware.gnss-service.mediatek: nmea [Visteon] [1762514837000] :: $GNRMC,112717.62,A,1254.033600,N,8005.616600,E,6.26,83.980,071125,,,A,V*0B
	Line  41885: 11-07 16:57:50.143  1778  2008 D CLUSTER_SERVICE: SampleClusterServiceImpl: nmeaData[0] contains RMC: $GNRMC,112717.62,A,1254.033600,N,8005.616600,E,6.26,83.980,071125,,,A,V*0B
	Line  54121: 11-07 16:57:19.885   670  1392 I MTK_ADR : module_daemon.c save_active_rmc_sentences 519 save_active_rmc_sentences activeRmc[$GNRMC,112720.623,A,1254.034900,N,8005.620100,E,1.79,112.400,071125,,,A,V*07
	Line  54271: 11-07 16:57:19.906   706  1519 D android.hardware.gnss-service.mediatek: nmea [Visteon] [1762514840000] :: $GNRMC,112720.62,A,1254.034900,N,8005.620100,E,1.79,112.400,071125,,,A,V*34
	Line  54274: 11-07 16:57:19.907  1778  2008 D CLUSTER_SERVICE: SampleClusterServiceImpl: nmeaData[0] contains RMC: $GNRMC,112720.62,A,1254.034900,N,8005.620100,E,1.79,112.400,071125,,,A,V*34
	Line  59225: 11-07 16:57:20.891   670  1392 I MTK_ADR : module_daemon.c save_active_rmc_sentences 519 save_active_rmc_sentences activeRmc[$GNRMC,112721.625,A,1254.033900,N,8005.621000,E,0.23,113.160,071125,,,A,V*0B
	Line  59300: 11-07 16:57:20.917   706  1519 D android.hardware.gnss-service.mediatek: nmea [Visteon] [1762514841000] :: $GNRMC,112721.62,A,1254.033900,N,8005.621000,E,0.23,112.400,071125,,,A,V*3C
	Line  59303: 11-07 16:57:20.918  1778  2008 D CLUSTER_SERVICE: SampleClusterServiceImpl: nmeaData[0] contains RMC: $GNRMC,112721.62,A,1254.033900,N,8005.621000,E,0.23,112.400,071125,,,A,V*3C
	Line  61588: 11-07 16:57:21.881   670  1392 I MTK_ADR : module_daemon.c save_active_rmc_sentences 519 save_active_rmc_sentences activeRmc[$GNRMC,112722.626,A,1254.033400,N,8005.621700,E,0.67,106.490,071125,,,A,V*0F
	Line  61643: 11-07 16:57:21.903   706  1519 D android.hardware.gnss-service.mediatek: nmea [Visteon] [1762514842000] :: $GNRMC,112722.62,A,1254.033400,N,8005.621700,E,0.67,106.490,071125,,,A,V*39
	Line  61645: 11-07 16:57:21.903  1778  2008 D CLUSTER_SERVICE: SampleClusterServiceImpl: nmeaData[0] contains RMC: $GNRMC,112722.62,A,1254.033400,N,8005.621700,E,0.67,106.490,071125,,,A,V*39
	Line  64412: 11-07 16:57:23.891   670  1392 I MTK_ADR : module_daemon.c save_active_rmc_sentences 519 save_active_rmc_sentences activeRmc[$GNRMC,112724.627,A,1254.033600,N,8005.621500,E,0.33,144.910,071125,,,A,V*0A
	Line  64434: 11-07 16:57:23.905   706  1519 D android.hardware.gnss-service.mediatek: nmea [Visteon] [1762514844000] :: $GNRMC,112724.62,A,1254.033600,N,8005.621500,E,0.33,144.910,071125,,,A,V*3D
	Line  64436: 11-07 16:57:23.905  1778  2008 D CLUSTER_SERVICE: SampleClusterServiceImpl: nmeaData[0] contains RMC: $GNRMC,112724.62,A,1254.033600,N,8005.621500,E,0.33,144.910,071125,,,A,V*3D
	Line  65771: 11-07 16:57:24.879   670  1392 I MTK_ADR : module_daemon.c save_active_rmc_sentences 519 save_active_rmc_sentences activeRmc[$GNRMC,112725.654,A,1254.025600,N,8005.624400,E,0.08,171.630,071125,,,A,V*0F
	Line  65797: 11-07 16:57:24.891   706  1519 D android.hardware.gnss-service.mediatek: nmea [Visteon] [1762514845000] :: $GNRMC,112725.65,A,1254.025600,N,8005.624400,E,0.08,144.910,071125,,,A,V*30
	Line  65801: 11-07 16:57:24.891  1778  2008 D CLUSTER_SERVICE: SampleClusterServiceImpl: nmeaData[0] contains RMC: $GNRMC,112725.65,A,1254.025600,N,8005.624400,E,0.08,144.910,071125,,,A,V*30
	Line  68090: 11-07 16:57:26.236   670  1392 I MTK_ADR : module_daemon.c save_active_rmc_sentences 519 save_active_rmc_sentences activeRmc[$GNRMC,112727.000,A,1254.026800,N,8005.622800,E,0.18,140.090,071125,,,A,V*02
	Line  68111: 11-07 16:57:26.245   706  1519 D android.hardware.gnss-service.mediatek: nmea [Visteon] [1762514847000] :: $GNRMC,112727.00,A,1254.026800,N,8005.622800,E,0.18,144.910,071125,,,A,V*37
	Line  68113: 11-07 16:57:26.246  1778  2008 D CLUSTER_SERVICE: SampleClusterServiceImpl: nmeaData[0] contains RMC: $GNRMC,112727.00,A,1254.026800,N,8005.622800,E,0.18,144.910,071125,,,A,V*37
	Line  69831: 11-07 16:57:27.243   670  1392 I MTK_ADR : module_daemon.c save_active_rmc_sentences 519 save_active_rmc_sentences activeRmc[$GNRMC,112728.000,A,1254.027100,N,8005.622900,E,0.08,219.130,071125,,,A,V*01
	Line  69859: 11-07 16:57:27.271   706  1519 D android.hardware.gnss-service.mediatek: nmea [Visteon] [1762514848000] :: $GNRMC,112728.00,A,1254.027100,N,8005.622900,E,0.08,144.910,071125,,,A,V*30
	Line  69861: 11-07 16:57:27.273  1778  2008 D CLUSTER_SERVICE: SampleClusterServiceImpl: nmeaData[0] contains RMC: $GNRMC,112728.00,A,1254.027100,N,8005.622900,E,0.08,144.910,071125,,,A,V*30
	Line  70849: 11-07 16:57:28.249   670  1392 I MTK_ADR : module_daemon.c save_active_rmc_sentences 519 save_active_rmc_sentences activeRmc[$GNRMC,112729.000,A,1254.027200,N,8005.623000,E,0.03,304.750,071125,,,A,V*0D
	Line  70903: 11-07 16:57:28.290   706  1519 D android.hardware.gnss-service.mediatek: nmea [Visteon] [1762514849000] :: $GNRMC,112729.00,A,1254.027200,N,8005.623000,E,0.03,144.910,071125,,,A,V*31
	Line  70913: 11-07 16:57:28.295  1778  2008 D CLUSTER_SERVICE: SampleClusterServiceImpl: nmeaData[0] contains RMC: $GNRMC,112729.00,A,1254.027200,N,8005.623000,E,0.03,144.910,071125,,,A,V*31
	Line  71820: 11-07 16:57:29.237   670  1392 I MTK_ADR : module_daemon.c save_active_rmc_sentences 519 save_active_rmc_sentences activeRmc[$GNRMC,112730.000,A,1254.027100,N,8005.623300,E,0.33,309.800,071125,,,A,V*01
	Line  71910: 11-07 16:57:29.279   706  1519 D android.hardware.gnss-service.mediatek: nmea [Visteon] [1762514850000] :: $GNRMC,112730.00,A,1254.027100,N,8005.623300,E,0.33,309.800,071125,,,A,V*31
	Line  71912: 11-07 16:57:29.282  1778  2008 D CLUSTER_SERVICE: SampleClusterServiceImpl: nmeaData[0] contains RMC: $GNRMC,112730.00,A,1254.027100,N,8005.623300,E,0.33,309.800,071125,,,A,V*31
	Line  72966: 11-07 16:57:30.242   670  1392 I MTK_ADR : module_daemon.c save_active_rmc_sentences 519 save_active_rmc_sentences activeRmc[$GNRMC,112731.000,A,1254.027000,N,8005.623600,E,0.03,36.610,071125,,,A,V*37
	Line  73043: 11-07 16:57:30.274   706  1519 D android.hardware.gnss-service.mediatek: nmea [Visteon] [1762514851000] :: $GNRMC,112731.00,A,1254.027000,N,8005.623600,E,0.03,309.800,071125,,,A,V*37
	Line  73047: 11-07 16:57:30.278  1778  2008 D CLUSTER_SERVICE: SampleClusterServiceImpl: nmeaData[0] contains RMC: $GNRMC,112731.00,A,1254.027000,N,8005.623600,E,0.03,309.800,071125,,,A,V*37
	Line  74047: 11-07 16:57:31.249   670  1392 I MTK_ADR : module_daemon.c save_active_rmc_sentences 519 save_active_rmc_sentences activeRmc[$GNRMC,112732.000,A,1254.026900,N,8005.623900,E,0.06,119.570,071125,,,A,V*0F
	Line  74077: 11-07 16:57:31.280   706  1519 D android.hardware.gnss-service.mediatek: nmea [Visteon] [1762514852000] :: $GNRMC,112732.00,A,1254.026900,N,8005.623900,E,0.06,309.800,071125,,,A,V*36
	Line  74079: 11-07 16:57:31.282  1778  2008 D CLUSTER_SERVICE: SampleClusterServiceImpl: nmeaData[0] contains RMC: $GNRMC,112732.00,A,1254.026900,N,8005.623900,E,0.06,309.800,071125,,,A,V*36
	Line  75025: 11-07 16:57:32.237   670  1392 I MTK_ADR : module_daemon.c save_active_rmc_sentences 519 save_active_rmc_sentences activeRmc[$GNRMC,112733.000,A,1254.026700,N,8005.624200,E,0.07,298.800,071125,,,A,V*0D
	Line  75123: 11-07 16:57:32.278   706  1519 D android.hardware.gnss-service.mediatek: nmea [Visteon] [1762514853000] :: $GNRMC,112733.00,A,1254.026700,N,8005.624200,E,0.07,309.800,071125,,,A,V*34
	Line  75126: 11-07 16:57:32.283  1778  2008 D CLUSTER_SERVICE: SampleClusterServiceImpl: nmeaData[0] contains RMC: $GNRMC,112733.00,A,1254.026700,N,8005.624200,E,0.07,309.800,071125,,,A,V*34
	Line  76040: 11-07 16:57:33.242   670  1392 I MTK_ADR : module_daemon.c save_active_rmc_sentences 519 save_active_rmc_sentences activeRmc[$GNRMC,112734.000,A,1254.026700,N,8005.624300,E,0.05,314.070,071125,,,A,V*03
	Line  76076: 11-07 16:57:33.285   706  1519 D android.hardware.gnss-service.mediatek: nmea [Visteon] [1762514854000] :: $GNRMC,112734.00,A,1254.026700,N,8005.624300,E,0.05,309.800,071125,,,A,V*30
	Line  76078: 11-07 16:57:33.287  1778  2008 D CLUSTER_SERVICE: SampleClusterServiceImpl: nmeaData[0] contains RMC: $GNRMC,112734.00,A,1254.026700,N,8005.624300,E,0.05,309.800,071125,,,A,V*30
	Line  76971: 11-07 16:57:34.246   670  1392 I MTK_ADR : module_daemon.c save_active_rmc_sentences 519 save_active_rmc_sentences activeRmc[$GNRMC,112735.000,A,1254.026700,N,8005.624500,E,1.15,313.960,071125,,,A,V*0B
	Line  77146: 11-07 16:57:34.283   706  1519 D android.hardware.gnss-service.mediatek: nmea [Visteon] [1762514855000] :: $GNRMC,112735.00,A,1254.026700,N,8005.624500,E,1.15,313.960,071125,,,A,V*3B
	Line  77148: 11-07 16:57:34.285  1778  2008 D CLUSTER_SERVICE: SampleClusterServiceImpl: nmeaData[0] contains RMC: $GNRMC,112735.00,A,1254.026700,N,8005.624500,E,1.15,313.960,071125,,,A,V*3B
	Line  78270: 11-07 16:57:35.235   670  1392 I MTK_ADR : module_daemon.c save_active_rmc_sentences 519 save_active_rmc_sentences activeRmc[$GNRMC,112736.000,A,1254.026300,N,8005.624900,E,0.69,132.360,071125,,,A,V*01
	Line  78345: 11-07 16:57:35.278   706  1519 D android.hardware.gnss-service.mediatek: nmea [Visteon] [1762514856000] :: $GNRMC,112736.00,A,1254.026300,N,8005.624900,E,0.69,132.360,071125,,,A,V*31
	Line  78347: 11-07 16:57:35.283  1778  2008 D CLUSTER_SERVICE: SampleClusterServiceImpl: nmeaData[0] contains RMC: $GNRMC,112736.00,A,1254.026300,N,8005.624900,E,0.69,132.360,071125,,,A,V*31
	Line  79329: 11-07 16:57:36.241   670  1392 I MTK_ADR : module_daemon.c save_active_rmc_sentences 519 save_active_rmc_sentences activeRmc[$GNRMC,112737.000,A,1254.026100,N,8005.625200,E,0.14,130.790,071125,,,A,V*0B
	Line  79438: 11-07 16:57:36.292   706  1519 D android.hardware.gnss-service.mediatek: nmea [Visteon] [1762514857000] :: $GNRMC,112737.00,A,1254.026100,N,8005.625200,E,0.14,132.360,071125,,,A,V*32
	Line  79450: 11-07 16:57:36.300  1778  2008 D CLUSTER_SERVICE: SampleClusterServiceImpl: nmeaData[0] contains RMC: $GNRMC,112737.00,A,1254.026100,N,8005.625200,E,0.14,132.360,071125,,,A,V*32
	Line  80381: 11-07 16:57:37.246   670  1392 I MTK_ADR : module_daemon.c save_active_rmc_sentences 519 save_active_rmc_sentences activeRmc[$GNRMC,112738.000,A,1254.025800,N,8005.625500,E,0.04,116.360,071125,,,A,V*07
	Line  80410: 11-07 16:57:37.277   706  1519 D android.hardware.gnss-service.mediatek: nmea [Visteon] [1762514858000] :: $GNRMC,112738.00,A,1254.025800,N,8005.625500,E,0.04,132.360,071125,,,A,V*31
	Line  80461: 11-07 16:57:37.284  1778  2008 D CLUSTER_SERVICE: SampleClusterServiceImpl: nmeaData[0] contains RMC: $GNRMC,112738.00,A,1254.025800,N,8005.625500,E,0.04,132.360,071125,,,A,V*31
	Line  81479: 11-07 16:57:38.252   670  1392 I MTK_ADR : module_daemon.c save_active_rmc_sentences 519 save_active_rmc_sentences activeRmc[$GNRMC,112739.000,A,1254.025600,N,8005.625700,E,0.26,312.910,071125,,,A,V*01
	Line  81584: 11-07 16:57:38.315   706  1519 D android.hardware.gnss-service.mediatek: nmea [Visteon] [1762514859000] :: $GNRMC,112739.00,A,1254.025600,N,8005.625700,E,0.26,132.360,071125,,,A,V*3C
	Line  81591: 11-07 16:57:38.321  1778  2008 D CLUSTER_SERVICE: SampleClusterServiceImpl: nmeaData[0] contains RMC: $GNRMC,112739.00,A,1254.025600,N,8005.625700,E,0.26,132.360,071125,,,A,V*3C
	Line  82525: 11-07 16:57:39.240   670  1392 I MTK_ADR : module_daemon.c save_active_rmc_sentences 519 save_active_rmc_sentences activeRmc[$GNRMC,112740.000,A,1254.025500,N,8005.625700,E,0.10,131.770,071125,,,A,V*02
	Line  82656: 11-07 16:57:39.292   706  1519 D android.hardware.gnss-service.mediatek: nmea [Visteon] [1762514860000] :: $GNRMC,112740.00,A,1254.025500,N,8005.625700,E,0.10,132.360,071125,,,A,V*34
	Line  82666: 11-07 16:57:39.297  1778  2008 D CLUSTER_SERVICE: SampleClusterServiceImpl: nmeaData[0] contains RMC: $GNRMC,112740.00,A,1254.025500,N,8005.625700,E,0.10,132.360,071125,,,A,V*34
	Line  83594: 11-07 16:57:40.247   670  1392 I MTK_ADR : module_daemon.c save_active_rmc_sentences 519 save_active_rmc_sentences activeRmc[$GNRMC,112741.000,A,1254.025300,N,8005.625900,E,0.48,133.130,071125,,,A,V*06
	Line  83644: 11-07 16:57:40.284   706  1519 D android.hardware.gnss-service.mediatek: nmea [Visteon] [1762514861000] :: $GNRMC,112741.00,A,1254.025300,N,8005.625900,E,0.48,133.130,071125,,,A,V*36
	Line  83702: 11-07 16:57:40.296  1778  2008 D CLUSTER_SERVICE: SampleClusterServiceImpl: nmeaData[0] contains RMC: $GNRMC,112741.00,A,1254.025300,N,8005.625900,E,0.48,133.130,071125,,,A,V*36
	Line  84625: 11-07 16:57:41.233   670  1392 I MTK_ADR : module_daemon.c save_active_rmc_sentences 519 save_active_rmc_sentences activeRmc[$GNRMC,112742.000,A,1254.025200,N,8005.626000,E,0.54,133.550,071125,,,A,V*01
	Line  84653: 11-07 16:57:41.268   706  1519 D android.hardware.gnss-service.mediatek: nmea [Visteon] [1762514862000] :: $GNRMC,112742.00,A,1254.025200,N,8005.626000,E,0.54,133.550,071125,,,A,V*31
	Line  84655: 11-07 16:57:41.270  1778  2008 D CLUSTER_SERVICE: SampleClusterServiceImpl: nmeaData[0] contains RMC: $GNRMC,112742.00,A,1254.025200,N,8005.626000,E,0.54,133.550,071125,,,A,V*31
	Line  85614: 11-07 16:57:42.240   670  1392 I MTK_ADR : module_daemon.c save_active_rmc_sentences 519 save_active_rmc_sentences activeRmc[$GNRMC,112743.000,A,1254.025100,N,8005.626200,E,0.14,134.610,071125,,,A,V*05
	Line  85666: 11-07 16:57:42.283   706  1519 D android.hardware.gnss-service.mediatek: nmea [Visteon] [1762514863000] :: $GNRMC,112743.00,A,1254.025100,N,8005.626200,E,0.14,133.550,071125,,,A,V*35
	Line  85669: 11-07 16:57:42.286  1778  2008 D CLUSTER_SERVICE: SampleClusterServiceImpl: nmeaData[0] contains RMC: $GNRMC,112743.00,A,1254.025100,N,8005.626200,E,0.14,133.550,071125,,,A,V*35
	Line  86661: 11-07 16:57:43.245   670  1392 I MTK_ADR : module_daemon.c save_active_rmc_sentences 519 save_active_rmc_sentences activeRmc[$GNRMC,112744.000,A,1254.024700,N,8005.626500,E,0.22,134.050,071125,,,A,V*05
	Line  86689: 11-07 16:57:43.285   706  1519 D android.hardware.gnss-service.mediatek: nmea [Visteon] [1762514864000] :: $GNRMC,112744.00,A,1254.024700,N,8005.626500,E,0.22,133.550,071125,,,A,V*37
	Line  86691: 11-07 16:57:43.286  1778  2008 D CLUSTER_SERVICE: SampleClusterServiceImpl: nmeaData[0] contains RMC: $GNRMC,112744.00,A,1254.024700,N,8005.626500,E,0.22,133.550,071125,,,A,V*37
	Line  87707: 11-07 16:57:44.250   670  1392 I MTK_ADR : module_daemon.c save_active_rmc_sentences 519 save_active_rmc_sentences activeRmc[$GNRMC,112745.000,A,1254.024600,N,8005.626700,E,0.63,133.180,071125,,,A,V*09
	Line  87750: 11-07 16:57:44.288   706  1519 D android.hardware.gnss-service.mediatek: nmea [Visteon] [1762514865000] :: $GNRMC,112745.00,A,1254.024600,N,8005.626700,E,0.63,133.180,071125,,,A,V*39
	Line  87757: 11-07 16:57:44.290  1778  2008 D CLUSTER_SERVICE: SampleClusterServiceImpl: nmeaData[0] contains RMC: $GNRMC,112745.00,A,1254.024600,N,8005.626700,E,0.63,133.180,071125,,,A,V*39
	Line  88834: 11-07 16:57:45.239   670  1392 I MTK_ADR : module_daemon.c save_active_rmc_sentences 519 save_active_rmc_sentences activeRmc[$GNRMC,112746.000,A,1254.024300,N,8005.627100,E,1.03,133.890,071125,,,A,V*07
	Line  88862: 11-07 16:57:45.271   706  1519 D android.hardware.gnss-service.mediatek: nmea [Visteon] [1762514866000] :: $GNRMC,112746.00,A,1254.024300,N,8005.627100,E,1.03,133.890,071125,,,A,V*37
	Line  88864: 11-07 16:57:45.273  1778  2008 D CLUSTER_SERVICE: SampleClusterServiceImpl: nmeaData[0] contains RMC: $GNRMC,112746.00,A,1254.024300,N,8005.627100,E,1.03,133.890,071125,,,A,V*37
	Line  89961: 11-07 16:57:46.245   670  1392 I MTK_ADR : module_daemon.c save_active_rmc_sentences 519 save_active_rmc_sentences activeRmc[$GNRMC,112747.000,A,1254.024000,N,8005.627500,E,1.15,134.490,071125,,,A,V*0D
	Line  90011: 11-07 16:57:46.287   706  1519 D android.hardware.gnss-service.mediatek: nmea [Visteon] [1762514867000] :: $GNRMC,112747.00,A,1254.024000,N,8005.627500,E,1.15,134.490,071125,,,A,V*3D
	Line  90014: 11-07 16:57:46.290  1778  2008 D CLUSTER_SERVICE: SampleClusterServiceImpl: nmeaData[0] contains RMC: $GNRMC,112747.00,A,1254.024000,N,8005.627500,E,1.15,134.490,071125,,,A,V*3D
	Line  91040: 11-07 16:57:47.232   670  1392 I MTK_ADR : module_daemon.c save_active_rmc_sentences 519 save_active_rmc_sentences activeRmc[$GNRMC,112748.000,A,1254.024000,N,8005.627400,E,0.26,311.300,071125,,,A,V*09
	Line  91068: 11-07 16:57:47.263   706  1519 D android.hardware.gnss-service.mediatek: nmea [Visteon] [1762514868000] :: $GNRMC,112748.00,A,1254.024000,N,8005.627400,E,0.26,134.490,071125,,,A,V*32
	Line  91070: 11-07 16:57:47.265  1778  2008 D CLUSTER_SERVICE: SampleClusterServiceImpl: nmeaData[0] contains RMC: $GNRMC,112748.00,A,1254.024000,N,8005.627400,E,0.26,134.490,071125,,,A,V*32
	Line  92010: 11-07 16:57:48.238   670  1392 I MTK_ADR : module_daemon.c save_active_rmc_sentences 519 save_active_rmc_sentences activeRmc[$GNRMC,112749.000,A,1254.024000,N,8005.627000,E,1.99,256.990,071125,,,A,V*08
	Line  92065: 11-07 16:57:48.277   706  1519 D android.hardware.gnss-service.mediatek: nmea [Visteon] [1762514869000] :: $GNRMC,112749.00,A,1254.024000,N,8005.627000,E,1.99,256.990,071125,,,A,V*38
	Line  92067: 11-07 16:57:48.279  1778  2008 D CLUSTER_SERVICE: SampleClusterServiceImpl: nmeaData[0] contains RMC: $GNRMC,112749.00,A,1254.024000,N,8005.627000,E,1.99,256.990,071125,,,A,V*38
	Line  92987: 11-07 16:57:49.244   670  1392 I MTK_ADR : module_daemon.c save_active_rmc_sentences 519 save_active_rmc_sentences activeRmc[$GNRMC,112750.000,A,1254.024000,N,8005.626600,E,0.84,293.020,071125,,,A,V*01
	Line  93016: 11-07 16:57:49.282   706  1519 D android.hardware.gnss-service.mediatek: nmea [Visteon] [1762514870000] :: $GNRMC,112750.00,A,1254.024000,N,8005.626600,E,0.84,293.020,071125,,,A,V*31
	Line  93018: 11-07 16:57:49.284  1778  2008 D CLUSTER_SERVICE: SampleClusterServiceImpl: nmeaData[0] contains RMC: $GNRMC,112750.00,A,1254.024000,N,8005.626600,E,0.84,293.020,071125,,,A,V*31
	Line  94059: 11-07 16:57:50.250   670  1392 I MTK_ADR : module_daemon.c save_active_rmc_sentences 519 save_active_rmc_sentences activeRmc[$GNRMC,112751.000,A,1254.024100,N,8005.626500,E,0.25,6.200,071125,,,A,V*07
	Line  94107: 11-07 16:57:50.291   706  1519 D android.hardware.gnss-service.mediatek: nmea [Visteon] [1762514871000] :: $GNRMC,112751.00,A,1254.024100,N,8005.626500,E,0.25,293.020,071125,,,A,V*39
	Line  94116: 11-07 16:57:50.295  1778  2008 D CLUSTER_SERVICE: SampleClusterServiceImpl: nmeaData[0] contains RMC: $GNRMC,112751.00,A,1254.024100,N,8005.626500,E,0.25,293.020,071125,,,A,V*39
	Line  95024: 11-07 16:57:51.237   670  1392 I MTK_ADR : module_daemon.c save_active_rmc_sentences 519 save_active_rmc_sentences activeRmc[$GNRMC,112752.000,A,1254.024000,N,8005.626400,E,0.60,248.970,071125,,,A,V*01
	Line  95059: 11-07 16:57:51.276   706  1519 D android.hardware.gnss-service.mediatek: nmea [Visteon] [1762514872000] :: $GNRMC,112752.00,A,1254.024000,N,8005.626400,E,0.60,248.970,071125,,,A,V*31
	Line  95061: 11-07 16:57:51.278  1778  2008 D CLUSTER_SERVICE: SampleClusterServiceImpl: nmeaData[0] contains RMC: $GNRMC,112752.00,A,1254.024000,N,8005.626400,E,0.60,248.970,071125,,,A,V*31
	Line  96027: 11-07 16:57:52.245   670  1392 I MTK_ADR : module_daemon.c save_active_rmc_sentences 519 save_active_rmc_sentences activeRmc[$GNRMC,112753.000,A,1254.023900,N,8005.626300,E,0.61,229.260,071125,,,A,V*05
	Line  96082: 11-07 16:57:52.285   706  1519 D android.hardware.gnss-service.mediatek: nmea [Visteon] [1762514873000] :: $GNRMC,112753.00,A,1254.023900,N,8005.626300,E,0.61,229.260,071125,,,A,V*35
	Line  96085: 11-07 16:57:52.289  1778  2008 D CLUSTER_SERVICE: SampleClusterServiceImpl: nmeaData[0] contains RMC: $GNRMC,112753.00,A,1254.023900,N,8005.626300,E,0.61,229.260,071125,,,A,V*35
	Line  97011: 11-07 16:57:53.231   670  1392 I MTK_ADR : module_daemon.c save_active_rmc_sentences 519 save_active_rmc_sentences activeRmc[$GNRMC,112754.000,A,1254.024000,N,8005.626300,E,0.59,226.490,071125,,,A,V*01
	Line  97067: 11-07 16:57:53.271   706  1519 D android.hardware.gnss-service.mediatek: nmea [Visteon] [1762514874000] :: $GNRMC,112754.00,A,1254.024000,N,8005.626300,E,0.59,226.490,071125,,,A,V*31
	Line  97074: 11-07 16:57:53.274  1778  2008 D CLUSTER_SERVICE: SampleClusterServiceImpl: nmeaData[0] contains RMC: $GNRMC,112754.00,A,1254.024000,N,8005.626300,E,0.59,226.490,071125,,,A,V*31
	Line  98056: 11-07 16:57:54.236   670  1392 I MTK_ADR : module_daemon.c save_active_rmc_sentences 519 save_active_rmc_sentences activeRmc[$GNRMC,112755.000,A,1254.023800,N,8005.626100,E,2.35,224.560,071125,,,A,V*09
	Line  98130: 11-07 16:57:54.273   706  1519 D android.hardware.gnss-service.mediatek: nmea [Visteon] [1762514875000] :: $GNRMC,112755.00,A,1254.023800,N,8005.626100,E,2.35,224.560,071125,,,A,V*39
	Line  98137: 11-07 16:57:54.276  1778  2008 D CLUSTER_SERVICE: SampleClusterServiceImpl: nmeaData[0] contains RMC: $GNRMC,112755.00,A,1254.023800,N,8005.626100,E,2.35,224.560,071125,,,A,V*39
	Line  99023: 11-07 16:57:55.242   670  1392 I MTK_ADR : module_daemon.c save_active_rmc_sentences 519 save_active_rmc_sentences activeRmc[$GNRMC,112756.000,A,1254.023600,N,8005.625800,E,0.76,251.260,071125,,,A,V*0E
	Line  99095: 11-07 16:57:55.285   706  1519 D android.hardware.gnss-service.mediatek: nmea [Visteon] [1762514876000] :: $GNRMC,112756.00,A,1254.023600,N,8005.625800,E,0.76,251.260,071125,,,A,V*3E
	Line  99097: 11-07 16:57:55.287  1778  2008 D CLUSTER_SERVICE: SampleClusterServiceImpl: nmeaData[0] contains RMC: $GNRMC,112756.00,A,1254.023600,N,8005.625800,E,0.76,251.260,071125,,,A,V*3E
	Line 100008: 11-07 16:57:56.249   670  1392 I MTK_ADR : module_daemon.c save_active_rmc_sentences 519 save_active_rmc_sentences activeRmc[$GNRMC,112757.000,A,1254.023600,N,8005.625600,E,0.85,228.230,071125,,,A,V*06
	Line 100100: 11-07 16:57:56.292   706  1519 D android.hardware.gnss-service.mediatek: nmea [Visteon] [1762514877000] :: $GNRMC,112757.00,A,1254.023600,N,8005.625600,E,0.85,228.230,071125,,,A,V*36
	Line 100106: 11-07 16:57:56.295  1778  2008 D CLUSTER_SERVICE: SampleClusterServiceImpl: nmeaData[0] contains RMC: $GNRMC,112757.00,A,1254.023600,N,8005.625600,E,0.85,228.230,071125,,,A,V*36
	Line 101031: 11-07 16:57:57.236   670  1392 I MTK_ADR : module_daemon.c save_active_rmc_sentences 519 save_active_rmc_sentences activeRmc[$GNRMC,112758.000,A,1254.023700,N,8005.625500,E,0.59,287.290,071125,,,A,V*05
	Line 101092: 11-07 16:57:57.276   706  1519 D android.hardware.gnss-service.mediatek: nmea [Visteon] [1762514878000] :: $GNRMC,112758.00,A,1254.023700,N,8005.625500,E,0.59,287.290,071125,,,A,V*35
	Line 101099: 11-07 16:57:57.280  1778  2008 D CLUSTER_SERVICE: SampleClusterServiceImpl: nmeaData[0] contains RMC: $GNRMC,112758.00,A,1254.023700,N,8005.625500,E,0.59,287.290,071125,,,A,V*35
	Line 102074: 11-07 16:57:58.242   670  1392 I MTK_ADR : module_daemon.c save_active_rmc_sentences 519 save_active_rmc_sentences activeRmc[$GNRMC,112759.000,A,1254.024300,N,8005.625300,E,0.43,296.090,071125,,,A,V*08
	Line 102177: 11-07 16:57:58.291   706  1519 D android.hardware.gnss-service.mediatek: nmea [Visteon] [1762514879000] :: $GNRMC,112759.00,A,1254.024300,N,8005.625300,E,0.43,296.090,071125,,,A,V*38
	Line 102185: 11-07 16:57:58.298  1778  2008 D CLUSTER_SERVICE: SampleClusterServiceImpl: nmeaData[0] contains RMC: $GNRMC,112759.00,A,1254.024300,N,8005.625300,E,0.43,296.090,071125,,,A,V*38
	Line 103111: 11-07 16:57:59.248   670  1392 I MTK_ADR : module_daemon.c save_active_rmc_sentences 519 save_active_rmc_sentences activeRmc[$GNRMC,112800.000,A,1254.024500,N,8005.625400,E,0.18,316.610,071125,,,A,V*03
	Line 103166: 11-07 16:57:59.287   706  1519 D android.hardware.gnss-service.mediatek: nmea [Visteon] [1762514880000] :: $GNRMC,112800.00,A,1254.024500,N,8005.625400,E,0.18,296.090,071125,,,A,V*34
	Line 103178: 11-07 16:57:59.293  1778  2008 D CLUSTER_SERVICE: SampleClusterServiceImpl: nmeaData[0] contains RMC: $GNRMC,112800.00,A,1254.024500,N,8005.625400,E,0.18,296.090,071125,,,A,V*34
	Line 104158: 11-07 16:58:00.254   670  1392 I MTK_ADR : module_daemon.c save_active_rmc_sentences 519 save_active_rmc_sentences activeRmc[$GNRMC,112801.000,A,1254.024700,N,8005.625500,E,0.06,357.810,071125,,,A,V*05
	Line 104246: 11-07 16:58:00.311   706  1519 D android.hardware.gnss-service.mediatek: nmea [Visteon] [1762514881000] :: $GNRMC,112801.00,A,1254.024700,N,8005.625500,E,0.06,296.090,071125,,,A,V*39
	Line 104248: 11-07 16:58:00.314  1778  2008 D CLUSTER_SERVICE: SampleClusterServiceImpl: nmeaData[0] contains RMC: $GNRMC,112801.00,A,1254.024700,N,8005.625500,E,0.06,296.090,071125,,,A,V*39
	Line 105236: 11-07 16:58:01.241   670  1392 I MTK_ADR : module_daemon.c save_active_rmc_sentences 519 save_active_rmc_sentences activeRmc[$GNRMC,112802.000,A,1254.024800,N,8005.625600,E,0.07,309.340,071125,,,A,V*0E
	Line 105264: 11-07 16:58:01.262   706  1519 D android.hardware.gnss-service.mediatek: nmea [Visteon] [1762514882000] :: $GNRMC,112802.00,A,1254.024800,N,8005.625600,E,0.07,296.090,071125,,,A,V*37
	Line 105266: 11-07 16:58:01.262  1778  2008 D CLUSTER_SERVICE: SampleClusterServiceImpl: nmeaData[0] contains RMC: $GNRMC,112802.00,A,1254.024800,N,8005.625600,E,0.07,296.090,071125,,,A,V*37
	Line 106333: 11-07 16:58:02.247   670  1392 I MTK_ADR : module_daemon.c save_active_rmc_sentences 519 save_active_rmc_sentences activeRmc[$GNRMC,112803.000,A,1254.024900,N,8005.625800,E,0.07,211.020,071125,,,A,V*0D
	Line 106406: 11-07 16:58:02.291   706  1519 D android.hardware.gnss-service.mediatek: nmea [Visteon] [1762514883000] :: $GNRMC,112803.00,A,1254.024900,N,8005.625800,E,0.07,296.090,071125,,,A,V*39
	Line 106419: 11-07 16:58:02.297  1778  2008 D CLUSTER_SERVICE: SampleClusterServiceImpl: nmeaData[0] contains RMC: $GNRMC,112803.00,A,1254.024900,N,8005.625800,E,0.07,296.090,071125,,,A,V*39
	Line 107341: 11-07 16:58:03.234   670  1392 I MTK_ADR : module_daemon.c save_active_rmc_sentences 519 save_active_rmc_sentences activeRmc[$GNRMC,112804.000,A,1254.025000,N,8005.626000,E,0.08,198.150,071125,,,A,V*02
	Line 107386: 11-07 16:58:03.268   706  1519 D android.hardware.gnss-service.mediatek: nmea [Visteon] [1762514884000] :: $GNRMC,112804.00,A,1254.025000,N,8005.626000,E,0.08,296.090,071125,,,A,V*32
	Line 107391: 11-07 16:58:03.272  1778  2008 D CLUSTER_SERVICE: SampleClusterServiceImpl: nmeaData[0] contains RMC: $GNRMC,112804.00,A,1254.025000,N,8005.626000,E,0.08,296.090,071125,,,A,V*32
	Line 108272: 11-07 16:58:04.240   670  1392 I MTK_ADR : module_daemon.c save_active_rmc_sentences 519 save_active_rmc_sentences activeRmc[$GNRMC,112805.000,A,1254.024900,N,8005.625900,E,0.13,242.440,071125,,,A,V*0B
	Line 108341: 11-07 16:58:04.266   706  1519 D android.hardware.gnss-service.mediatek: nmea [Visteon] [1762514885000] :: $GNRMC,112805.00,A,1254.024900,N,8005.625900,E,0.13,296.090,071125,,,A,V*3B
	Line 108343: 11-07 16:58:04.269  1778  2008 D CLUSTER_SERVICE: SampleClusterServiceImpl: nmeaData[0] contains RMC: $GNRMC,112805.00,A,1254.024900,N,8005.625900,E,0.13,296.090,071125,,,A,V*3B
	Line 109388: 11-07 16:58:05.246   670  1392 I MTK_ADR : module_daemon.c save_active_rmc_sentences 519 save_active_rmc_sentences activeRmc[$GNRMC,112806.000,A,1254.025300,N,8005.625900,E,0.12,273.480,071125,,,A,V*0C
	Line 109425: 11-07 16:58:05.277   706  1519 D android.hardware.gnss-service.mediatek: nmea [Visteon] [1762514886000] :: $GNRMC,112806.00,A,1254.025300,N,8005.625900,E,0.12,296.090,071125,,,A,V*32
	Line 109427: 11-07 16:58:05.279  1778  2008 D CLUSTER_SERVICE: SampleClusterServiceImpl: nmeaData[0] contains RMC: $GNRMC,112806.00,A,1254.025300,N,8005.625900,E,0.12,296.090,071125,,,A,V*32
	Line 110329: 11-07 16:58:06.233   670  1392 I MTK_ADR : module_daemon.c save_active_rmc_sentences 519 save_active_rmc_sentences activeRmc[$GNRMC,112807.000,A,1254.025600,N,8005.625800,E,0.08,267.540,071125,,,A,V*0A
	Line 110392: 11-07 16:58:06.280   706  1519 D android.hardware.gnss-service.mediatek: nmea [Visteon] [1762514887000] :: $GNRMC,112807.00,A,1254.025600,N,8005.625800,E,0.08,296.090,071125,,,A,V*3C
	Line 110394: 11-07 16:58:06.283  1778  2008 D CLUSTER_SERVICE: SampleClusterServiceImpl: nmeaData[0] contains RMC: $GNRMC,112807.00,A,1254.025600,N,8005.625800,E,0.08,296.090,071125,,,A,V*3C
	Line 111369: 11-07 16:58:07.240   670  1392 I MTK_ADR : module_daemon.c save_active_rmc_sentences 519 save_active_rmc_sentences activeRmc[$GNRMC,112808.000,A,1254.025700,N,8005.625700,E,0.08,313.110,071125,,,A,V*08
	Line 111407: 11-07 16:58:07.277   706  1519 D android.hardware.gnss-service.mediatek: nmea [Visteon] [1762514888000] :: $GNRMC,112808.00,A,1254.025700,N,8005.625700,E,0.08,296.090,071125,,,A,V*3D
	Line 111409: 11-07 16:58:07.280  1778  2008 D CLUSTER_SERVICE: SampleClusterServiceImpl: nmeaData[0] contains RMC: $GNRMC,112808.00,A,1254.025700,N,8005.625700,E,0.08,296.090,071125,,,A,V*3D
	Line 112460: 11-07 16:58:08.246   670  1392 I MTK_ADR : module_daemon.c save_active_rmc_sentences 519 save_active_rmc_sentences activeRmc[$GNRMC,112809.000,A,1254.025700,N,8005.625600,E,0.03,50.960,071125,,,A,V*38
	Line 112518: 11-07 16:58:08.290   706  1519 D android.hardware.gnss-service.mediatek: nmea [Visteon] [1762514889000] :: $GNRMC,112809.00,A,1254.025700,N,8005.625600,E,0.03,296.090,071125,,,A,V*36
	Line 112527: 11-07 16:58:08.293  1778  2008 D CLUSTER_SERVICE: SampleClusterServiceImpl: nmeaData[0] contains RMC: $GNRMC,112809.00,A,1254.025700,N,8005.625600,E,0.03,296.090,071125,,,A,V*36
	Line 113411: 11-07 16:58:09.233   670  1392 I MTK_ADR : module_daemon.c save_active_rmc_sentences 519 save_active_rmc_sentences activeRmc[$GNRMC,112810.000,A,1254.025800,N,8005.625700,E,0.07,305.870,071125,,,A,V*09
	Line 113443: 11-07 16:58:09.264   706  1519 D android.hardware.gnss-service.mediatek: nmea [Visteon] [1762514890000] :: $GNRMC,112810.00,A,1254.025800,N,8005.625700,E,0.07,296.090,071125,,,A,V*34
	Line 113455: 11-07 16:58:09.266  1778  2008 D CLUSTER_SERVICE: SampleClusterServiceImpl: nmeaData[0] contains RMC: $GNRMC,112810.00,A,1254.025800,N,8005.625700,E,0.07,296.090,071125,,,A,V*34
	Line 114413: 11-07 16:58:10.239   670  1392 I MTK_ADR : module_daemon.c save_active_rmc_sentences 519 save_active_rmc_sentences activeRmc[$GNRMC,112811.000,A,1254.025700,N,8005.625700,E,0.04,130.600,071125,,,A,V*09
	Line 114484: 11-07 16:58:10.283   706  1519 D android.hardware.gnss-service.mediatek: nmea [Visteon] [1762514891000] :: $GNRMC,112811.00,A,1254.025700,N,8005.625700,E,0.04,296.090,071125,,,A,V*39
	Line 114488: 11-07 16:58:10.287  1778  2008 D CLUSTER_SERVICE: SampleClusterServiceImpl: nmeaData[0] contains RMC: $GNRMC,112811.00,A,1254.025700,N,8005.625700,E,0.04,296.090,071125,,,A,V*39
	Line 115586: 11-07 16:58:11.245   670  1392 I MTK_ADR : module_daemon.c save_active_rmc_sentences 519 save_active_rmc_sentences activeRmc[$GNRMC,112812.000,A,1254.025600,N,8005.625800,E,0.02,279.280,071125,,,A,V*00
	Line 115631: 11-07 16:58:11.278   706  1519 D android.hardware.gnss-service.mediatek: nmea [Visteon] [1762514892000] :: $GNRMC,112812.00,A,1254.025600,N,8005.625800,E,0.02,296.090,071125,,,A,V*32
	Line 115633: 11-07 16:58:11.280  1778  2008 D CLUSTER_SERVICE: SampleClusterServiceImpl: nmeaData[0] contains RMC: $GNRMC,112812.00,A,1254.025600,N,8005.625800,E,0.02,296.090,071125,,,A,V*32
	Line 116507: 11-07 16:58:12.251   670  1392 I MTK_ADR : module_daemon.c save_active_rmc_sentences 519 save_active_rmc_sentences activeRmc[$GNRMC,112813.000,A,1254.025700,N,8005.626000,E,0.09,328.040,071125,,,A,V*0B
	Line 116575: 11-07 16:58:12.294   706  1519 D android.hardware.gnss-service.mediatek: nmea [Visteon] [1762514893000] :: $GNRMC,112813.00,A,1254.025700,N,8005.626000,E,0.09,296.090,071125,,,A,V*32
	Line 116578: 11-07 16:58:12.300  1778  2008 D CLUSTER_SERVICE: SampleClusterServiceImpl: nmeaData[0] contains RMC: $GNRMC,112813.00,A,1254.025700,N,8005.626000,E,0.09,296.090,071125,,,A,V*32
	Line 117461: 11-07 16:58:13.239   670  1392 I MTK_ADR : module_daemon.c save_active_rmc_sentences 519 save_active_rmc_sentences activeRmc[$GNRMC,112814.000,A,1254.025700,N,8005.625900,E,0.10,285.260,071125,,,A,V*08
	Line 117540: 11-07 16:58:13.278   706  1519 D android.hardware.gnss-service.mediatek: nmea [Visteon] [1762514894000] :: $GNRMC,112814.00,A,1254.025700,N,8005.625900,E,0.10,296.090,071125,,,A,V*37
	Line 117542: 11-07 16:58:13.280  1778  2008 D CLUSTER_SERVICE: SampleClusterServiceImpl: nmeaData[0] contains RMC: $GNRMC,112814.00,A,1254.025700,N,8005.625900,E,0.10,296.090,071125,,,A,V*37
	Line 118508: 11-07 16:58:14.245   670  1392 I MTK_ADR : module_daemon.c save_active_rmc_sentences 519 save_active_rmc_sentences activeRmc[$GNRMC,112815.000,A,1254.025600,N,8005.625800,E,0.00,286.460,071125,,,A,V*0D
	Line 118603: 11-07 16:58:14.280   706  1519 D android.hardware.gnss-service.mediatek: nmea [Visteon] [1762514895000] :: $GNRMC,112815.00,A,1254.025600,N,8005.625800,E,0.00,296.090,071125,,,A,V*37
	Line 118605: 11-07 16:58:14.283  1778  2008 D CLUSTER_SERVICE: SampleClusterServiceImpl: nmeaData[0] contains RMC: $GNRMC,112815.00,A,1254.025600,N,8005.625800,E,0.00,296.090,071125,,,A,V*37
	Line 119492: 11-07 16:58:15.231   670  1392 I MTK_ADR : module_daemon.c save_active_rmc_sentences 519 save_active_rmc_sentences activeRmc[$GNRMC,112816.000,A,1254.025500,N,8005.625600,E,0.08,285.540,071125,,,A,V*0B
	Line 119561: 11-07 16:58:15.272   706  1519 D android.hardware.gnss-service.mediatek: nmea [Visteon] [1762514896000] :: $GNRMC,112816.00,A,1254.025500,N,8005.625600,E,0.08,296.090,071125,,,A,V*31
	Line 119563: 11-07 16:58:15.274  1778  2008 D CLUSTER_SERVICE: SampleClusterServiceImpl: nmeaData[0] contains RMC: $GNRMC,112816.00,A,1254.025500,N,8005.625600,E,0.08,296.090,071125,,,A,V*31
	Line 120468: 11-07 16:58:16.238   670  1392 I MTK_ADR : module_daemon.c save_active_rmc_sentences 519 save_active_rmc_sentences activeRmc[$GNRMC,112817.000,A,1254.025300,N,8005.625500,E,0.09,241.250,071125,,,A,V*00
	Line 120568: 11-07 16:58:16.280   706  1519 D android.hardware.gnss-service.mediatek: nmea [Visteon] [1762514897000] :: $GNRMC,112817.00,A,1254.025300,N,8005.625500,E,0.09,296.090,071125,,,A,V*34
	Line 120570: 11-07 16:58:16.283  1778  2008 D CLUSTER_SERVICE: SampleClusterServiceImpl: nmeaData[0] contains RMC: $GNRMC,112817.00,A,1254.025300,N,8005.625500,E,0.09,296.090,071125,,,A,V*34
	Line 121541: 11-07 16:58:17.243   670  1392 I MTK_ADR : module_daemon.c save_active_rmc_sentences 519 save_active_rmc_sentences activeRmc[$GNRMC,112818.000,A,1254.025200,N,8005.625500,E,0.02,340.600,071125,,,A,V*04
	Line 121611: 11-07 16:58:17.285   706  1519 D android.hardware.gnss-service.mediatek: nmea [Visteon] [1762514898000] :: $GNRMC,112818.00,A,1254.025200,N,8005.625500,E,0.02,296.090,071125,,,A,V*31
	Line 121613: 11-07 16:58:17.287  1778  2008 D CLUSTER_SERVICE: SampleClusterServiceImpl: nmeaData[0] contains RMC: $GNRMC,112818.00,A,1254.025200,N,8005.625500,E,0.02,296.090,071125,,,A,V*31
	Line 122462: 11-07 16:58:18.250   670  1392 I MTK_ADR : module_daemon.c save_active_rmc_sentences 519 save_active_rmc_sentences activeRmc[$GNRMC,112819.000,A,1254.025300,N,8005.625600,E,0.59,351.280,071125,,,A,V*05
	Line 122571: 11-07 16:58:18.305   706  1519 D android.hardware.gnss-service.mediatek: nmea [Visteon] [1762514899000] :: $GNRMC,112819.00,A,1254.025300,N,8005.625600,E,0.59,351.280,071125,,,A,V*35
	Line 122578: 11-07 16:58:18.309  1778  2008 D CLUSTER_SERVICE: SampleClusterServiceImpl: nmeaData[0] contains RMC: $GNRMC,112819.00,A,1254.025300,N,8005.625600,E,0.59,351.280,071125,,,A,V*35
	Line 123451: 11-07 16:58:19.255   670  1392 I MTK_ADR : module_daemon.c save_active_rmc_sentences 519 save_active_rmc_sentences activeRmc[$GNRMC,112820.000,A,1254.025300,N,8005.625500,E,0.22,64.700,071125,,,A,V*38
	Line 123540: 11-07 16:58:19.294   706  1519 D android.hardware.gnss-service.mediatek: nmea [Visteon] [1762514900000] :: $GNRMC,112820.00,A,1254.025300,N,8005.625500,E,0.22,351.280,071125,,,A,V*30
	Line 123542: 11-07 16:58:19.296  1778  2008 D CLUSTER_SERVICE: SampleClusterServiceImpl: nmeaData[0] contains RMC: $GNRMC,112820.00,A,1254.025300,N,8005.625500,E,0.22,351.280,071125,,,A,V*30
	Line 124486: 11-07 16:58:20.242   670  1392 I MTK_ADR : module_daemon.c save_active_rmc_sentences 519 save_active_rmc_sentences activeRmc[$GNRMC,112821.000,A,1254.025300,N,8005.625600,E,0.14,92.590,071125,,,A,V*3D
	Line 124569: 11-07 16:58:20.289   706  1519 D android.hardware.gnss-service.mediatek: nmea [Visteon] [1762514901000] :: $GNRMC,112821.00,A,1254.025300,N,8005.625600,E,0.14,351.280,071125,,,A,V*37
	Line 124590: 11-07 16:58:20.293  1778  2008 D CLUSTER_SERVICE: SampleClusterServiceImpl: nmeaData[0] contains RMC: $GNRMC,112821.00,A,1254.025300,N,8005.625600,E,0.14,351.280,071125,,,A,V*37
	Line 125438: 11-07 16:58:21.249   670  1392 I MTK_ADR : module_daemon.c save_active_rmc_sentences 519 save_active_rmc_sentences activeRmc[$GNRMC,112822.000,A,1254.025300,N,8005.625700,E,0.41,84.520,071125,,,A,V*33
	Line 125469: 11-07 16:58:21.285   706  1519 D android.hardware.gnss-service.mediatek: nmea [Visteon] [1762514902000] :: $GNRMC,112822.00,A,1254.025300,N,8005.625700,E,0.41,84.520,071125,,,A,V*03
	Line 125488: 11-07 16:58:21.290  1778  2008 D CLUSTER_SERVICE: SampleClusterServiceImpl: nmeaData[0] contains RMC: $GNRMC,112822.00,A,1254.025300,N,8005.625700,E,0.41,84.520,071125,,,A,V*03
	Line 126432: 11-07 16:58:22.236   670  1392 I MTK_ADR : module_daemon.c save_active_rmc_sentences 519 save_active_rmc_sentences activeRmc[$GNRMC,112823.000,A,1254.025200,N,8005.625700,E,0.35,91.240,071125,,,A,V*35
	Line 126488: 11-07 16:58:22.277   706  1519 D android.hardware.gnss-service.mediatek: nmea [Visteon] [1762514903000] :: $GNRMC,112823.00,A,1254.025200,N,8005.625700,E,0.35,91.240,071125,,,A,V*05
	Line 126490: 11-07 16:58:22.279  1778  2008 D CLUSTER_SERVICE: SampleClusterServiceImpl: nmeaData[0] contains RMC: $GNRMC,112823.00,A,1254.025200,N,8005.625700,E,0.35,91.240,071125,,,A,V*05
	Line 127504: 11-07 16:58:23.242   670  1392 I MTK_ADR : module_daemon.c save_active_rmc_sentences 519 save_active_rmc_sentences activeRmc[$GNRMC,112824.000,A,1254.025200,N,8005.625700,E,0.19,63.920,071125,,,A,V*3C
	Line 127533: 11-07 16:58:23.275   706  1519 D android.hardware.gnss-service.mediatek: nmea [Visteon] [1762514904000] :: $GNRMC,112824.00,A,1254.025200,N,8005.625700,E,0.19,91.240,071125,,,A,V*0C
	Line 127535: 11-07 16:58:23.278  1778  2008 D CLUSTER_SERVICE: SampleClusterServiceImpl: nmeaData[0] contains RMC: $GNRMC,112824.00,A,1254.025200,N,8005.625700,E,0.19,91.240,071125,,,A,V*0C
	Line 128418: 11-07 16:58:24.249   670  1392 I MTK_ADR : module_daemon.c save_active_rmc_sentences 519 save_active_rmc_sentences activeRmc[$GNRMC,112825.000,A,1254.025200,N,8005.625800,E,0.53,19.810,071125,,,A,V*33
	Line 128472: 11-07 16:58:24.291   706  1519 D android.hardware.gnss-service.mediatek: nmea [Visteon] [1762514905000] :: $GNRMC,112825.00,A,1254.025200,N,8005.625800,E,0.53,19.810,071125,,,A,V*03
	Line 128482: 11-07 16:58:24.297  1778  2008 D CLUSTER_SERVICE: SampleClusterServiceImpl: nmeaData[0] contains RMC: $GNRMC,112825.00,A,1254.025200,N,8005.625800,E,0.53,19.810,071125,,,A,V*03
	Line 129457: 11-07 16:58:25.237   670  1392 I MTK_ADR : module_daemon.c save_active_rmc_sentences 519 save_active_rmc_sentences activeRmc[$GNRMC,112826.000,A,1254.025200,N,8005.625800,E,0.12,39.300,071125,,,A,V*3D
	Line 129486: 11-07 16:58:25.274   706  1519 D android.hardware.gnss-service.mediatek: nmea [Visteon] [1762514906000] :: $GNRMC,112826.00,A,1254.025200,N,8005.625800,E,0.12,19.810,071125,,,A,V*05
	Line 129488: 11-07 16:58:25.277  1778  2008 D CLUSTER_SERVICE: SampleClusterServiceImpl: nmeaData[0] contains RMC: $GNRMC,112826.00,A,1254.025200,N,8005.625800,E,0.12,19.810,071125,,,A,V*05
	Line 130530: 11-07 16:58:26.241   670  1392 I MTK_ADR : module_daemon.c save_active_rmc_sentences 519 save_active_rmc_sentences activeRmc[$GNRMC,112827.000,A,1254.025300,N,8005.625900,E,0.16,84.870,071125,,,A,V*32
	Line 130588: 11-07 16:58:26.291   706  1519 D android.hardware.gnss-service.mediatek: nmea [Visteon] [1762514907000] :: $GNRMC,112827.00,A,1254.025300,N,8005.625900,E,0.16,19.810,071125,,,A,V*00
	Line 130598: 11-07 16:58:26.295  1778  2008 D CLUSTER_SERVICE: SampleClusterServiceImpl: nmeaData[0] contains RMC: $GNRMC,112827.00,A,1254.025300,N,8005.625900,E,0.16,19.810,071125,,,A,V*00
	Line 131557: 11-07 16:58:27.248   670  1392 I MTK_ADR : module_daemon.c save_active_rmc_sentences 519 save_active_rmc_sentences activeRmc[$GNRMC,112828.000,A,1254.025200,N,8005.625900,E,0.03,338.100,071125,,,A,V*02
	Line 131586: 11-07 16:58:27.282   706  1519 D android.hardware.gnss-service.mediatek: nmea [Visteon] [1762514908000] :: $GNRMC,112828.00,A,1254.025200,N,8005.625900,E,0.03,19.810,071125,,,A,V*0A
	Line 131588: 11-07 16:58:27.284  1778  2008 D CLUSTER_SERVICE: SampleClusterServiceImpl: nmeaData[0] contains RMC: $GNRMC,112828.00,A,1254.025200,N,8005.625900,E,0.03,19.810,071125,,,A,V*0A
	Line 132562: 11-07 16:58:28.254   670  1392 I MTK_ADR : module_daemon.c save_active_rmc_sentences 519 save_active_rmc_sentences activeRmc[$GNRMC,112829.000,A,1254.025200,N,8005.625800,E,0.37,335.010,071125,,,A,V*08
	Line 132615: 11-07 16:58:28.303   706  1519 D android.hardware.gnss-service.mediatek: nmea [Visteon] [1762514909000] :: $GNRMC,112829.00,A,1254.025200,N,8005.625800,E,0.37,335.010,071125,,,A,V*38
	Line 132618: 11-07 16:58:28.306  1778  2008 D CLUSTER_SERVICE: SampleClusterServiceImpl: nmeaData[0] contains RMC: $GNRMC,112829.00,A,1254.025200,N,8005.625800,E,0.37,335.010,071125,,,A,V*38
	Line 133637: 11-07 16:58:29.241   670  1392 I MTK_ADR : module_daemon.c save_active_rmc_sentences 519 save_active_rmc_sentences activeRmc[$GNRMC,112830.000,A,1254.025100,N,8005.625700,E,0.46,255.600,071125,,,A,V*0A
	Line 133671: 11-07 16:58:29.279   706  1519 D android.hardware.gnss-service.mediatek: nmea [Visteon] [1762514910000] :: $GNRMC,112830.00,A,1254.025100,N,8005.625700,E,0.46,255.600,071125,,,A,V*3A
	Line 133673: 11-07 16:58:29.281  1778  2008 D CLUSTER_SERVICE: SampleClusterServiceImpl: nmeaData[0] contains RMC: $GNRMC,112830.00,A,1254.025100,N,8005.625700,E,0.46,255.600,071125,,,A,V*3A
	Line 134576: 11-07 16:58:30.247   670  1392 I MTK_ADR : module_daemon.c save_active_rmc_sentences 519 save_active_rmc_sentences activeRmc[$GNRMC,112831.000,A,1254.025100,N,8005.625500,E,0.65,246.440,071125,,,A,V*0C
	Line 134633: 11-07 16:58:30.294   706  1519 D android.hardware.gnss-service.mediatek: nmea [Visteon] [1762514911000] :: $GNRMC,112831.00,A,1254.025100,N,8005.625500,E,0.65,246.440,071125,,,A,V*3C
	Line 134635: 11-07 16:58:30.297  1778  2008 D CLUSTER_SERVICE: SampleClusterServiceImpl: nmeaData[0] contains RMC: $GNRMC,112831.00,A,1254.025100,N,8005.625500,E,0.65,246.440,071125,,,A,V*3C
	Line 135537: 11-07 16:58:31.235   670  1392 I MTK_ADR : module_daemon.c save_active_rmc_sentences 519 save_active_rmc_sentences activeRmc[$GNRMC,112832.000,A,1254.025000,N,8005.625400,E,0.37,238.880,071125,,,A,V*01
	Line 135578: 11-07 16:58:31.275   706  1519 D android.hardware.gnss-service.mediatek: nmea [Visteon] [1762514912000] :: $GNRMC,112832.00,A,1254.025000,N,8005.625400,E,0.37,238.880,071125,,,A,V*31
	Line 135580: 11-07 16:58:31.277  1778  2008 D CLUSTER_SERVICE: SampleClusterServiceImpl: nmeaData[0] contains RMC: $GNRMC,112832.00,A,1254.025000,N,8005.625400,E,0.37,238.880,071125,,,A,V*31
	Line 136601: 11-07 16:58:32.241   670  1392 I MTK_ADR : module_daemon.c save_active_rmc_sentences 519 save_active_rmc_sentences activeRmc[$GNRMC,112833.000,A,1254.024900,N,8005.625500,E,0.23,227.660,071125,,,A,V*02
	Line 136655: 11-07 16:58:32.290   706  1519 D android.hardware.gnss-service.mediatek: nmea [Visteon] [1762514913000] :: $GNRMC,112833.00,A,1254.024900,N,8005.625500,E,0.23,238.880,071125,,,A,V*3C
	Line 136664: 11-07 16:58:32.295  1778  2008 D CLUSTER_SERVICE: SampleClusterServiceImpl: nmeaData[0] contains RMC: $GNRMC,112833.00,A,1254.024900,N,8005.625500,E,0.23,238.880,071125,,,A,V*3C
	Line 137602: 11-07 16:58:33.246   670  1392 I MTK_ADR : module_daemon.c save_active_rmc_sentences 519 save_active_rmc_sentences activeRmc[$GNRMC,112834.000,A,1254.025200,N,8005.625700,E,0.95,12.060,071125,,,A,V*32
	Line 137631: 11-07 16:58:33.283   706  1519 D android.hardware.gnss-service.mediatek: nmea [Visteon] [1762514914000] :: $GNRMC,112834.00,A,1254.025200,N,8005.625700,E,0.95,12.060,071125,,,A,V*02
	Line 137633: 11-07 16:58:33.285  1778  2008 D CLUSTER_SERVICE: SampleClusterServiceImpl: nmeaData[0] contains RMC: $GNRMC,112834.00,A,1254.025200,N,8005.625700,E,0.95,12.060,071125,,,A,V*02
	Line 138484: 11-07 16:58:34.233   670  1392 I MTK_ADR : module_daemon.c save_active_rmc_sentences 519 save_active_rmc_sentences activeRmc[$GNRMC,112835.000,A,1254.025400,N,8005.625800,E,1.24,13.090,071125,,,A,V*3F
	Line 138549: 11-07 16:58:34.282   706  1519 D android.hardware.gnss-service.mediatek: nmea [Visteon] [1762514915000] :: $GNRMC,112835.00,A,1254.025400,N,8005.625800,E,1.24,13.090,071125,,,A,V*0F
	Line 138551: 11-07 16:58:34.284  1778  2008 D CLUSTER_SERVICE: SampleClusterServiceImpl: nmeaData[0] contains RMC: $GNRMC,112835.00,A,1254.025400,N,8005.625800,E,1.24,13.090,071125,,,A,V*0F
	Line 139538: 11-07 16:58:35.239   670  1392 I MTK_ADR : module_daemon.c save_active_rmc_sentences 519 save_active_rmc_sentences activeRmc[$GNRMC,112836.000,A,1254.025800,N,8005.625900,E,1.75,9.280,071125,,,A,V*0D
	Line 139567: 11-07 16:58:35.275   706  1519 D android.hardware.gnss-service.mediatek: nmea [Visteon] [1762514916000] :: $GNRMC,112836.00,A,1254.025800,N,8005.625900,E,1.75,9.280,071125,,,A,V*3D
	Line 139569: 11-07 16:58:35.277  1778  2008 D CLUSTER_SERVICE: SampleClusterServiceImpl: nmeaData[0] contains RMC: $GNRMC,112836.00,A,1254.025800,N,8005.625900,E,1.75,9.280,071125,,,A,V*3D
	Line 140477: 11-07 16:58:36.245   670  1392 I MTK_ADR : module_daemon.c save_active_rmc_sentences 519 save_active_rmc_sentences activeRmc[$GNRMC,112837.000,A,1254.026100,N,8005.625900,E,1.42,0.340,071125,,,A,V*06
	Line 140529: 11-07 16:58:36.285   706  1519 D android.hardware.gnss-service.mediatek: nmea [Visteon] [1762514917000] :: $GNRMC,112837.00,A,1254.026100,N,8005.625900,E,1.42,0.340,071125,,,A,V*36
	Line 140532: 11-07 16:58:36.290  1778  2008 D CLUSTER_SERVICE: SampleClusterServiceImpl: nmeaData[0] contains RMC: $GNRMC,112837.00,A,1254.026100,N,8005.625900,E,1.42,0.340,071125,,,A,V*36
	Line 141453: 11-07 16:58:37.251   670  1392 I MTK_ADR : module_daemon.c save_active_rmc_sentences 519 save_active_rmc_sentences activeRmc[$GNRMC,112838.000,A,1254.026600,N,8005.625900,E,1.54,358.930,071125,,,A,V*0A
	Line 141497: 11-07 16:58:37.292   706  1519 D android.hardware.gnss-service.mediatek: nmea [Visteon] [1762514918000] :: $GNRMC,112838.00,A,1254.026600,N,8005.625900,E,1.54,358.930,071125,,,A,V*3A
	Line 141503: 11-07 16:58:37.294  1778  2008 D CLUSTER_SERVICE: SampleClusterServiceImpl: nmeaData[0] contains RMC: $GNRMC,112838.00,A,1254.026600,N,8005.625900,E,1.54,358.930,071125,,,A,V*3A
	Line 142570: 11-07 16:58:38.258   670  1392 I MTK_ADR : module_daemon.c save_active_rmc_sentences 519 save_active_rmc_sentences activeRmc[$GNRMC,112839.000,A,1254.026100,N,8005.625800,E,0.86,193.200,071125,,,A,V*0E
	Line 142625: 11-07 16:58:38.311   706  1519 D android.hardware.gnss-service.mediatek: nmea [Visteon] [1762514919000] :: $GNRMC,112839.00,A,1254.026100,N,8005.625800,E,0.86,193.200,071125,,,A,V*3E
	Line 142627: 11-07 16:58:38.312  1778  2008 D CLUSTER_SERVICE: SampleClusterServiceImpl: nmeaData[0] contains RMC: $GNRMC,112839.00,A,1254.026100,N,8005.625800,E,0.86,193.200,071125,,,A,V*3E
	Line 143533: 11-07 16:58:39.245   670  1392 I MTK_ADR : module_daemon.c save_active_rmc_sentences 519 save_active_rmc_sentences activeRmc[$GNRMC,112840.000,A,1254.025800,N,8005.625800,E,0.77,191.270,071125,,,A,V*01
	Line 143564: 11-07 16:58:39.281   706  1519 D android.hardware.gnss-service.mediatek: nmea [Visteon] [1762514920000] :: $GNRMC,112840.00,A,1254.025800,N,8005.625800,E,0.77,191.270,071125,,,A,V*31
	Line 143566: 11-07 16:58:39.285  1778  2008 D CLUSTER_SERVICE: SampleClusterServiceImpl: nmeaData[0] contains RMC: $GNRMC,112840.00,A,1254.025800,N,8005.625800,E,0.77,191.270,071125,,,A,V*31
	Line 144458: 11-07 16:58:40.233   670  1392 I MTK_ADR : module_daemon.c save_active_rmc_sentences 519 save_active_rmc_sentences activeRmc[$GNRMC,112841.000,A,1254.025700,N,8005.625900,E,0.37,188.100,071125,,,A,V*06
	Line 144526: 11-07 16:58:40.280   706  1519 D android.hardware.gnss-service.mediatek: nmea [Visteon] [1762514921000] :: $GNRMC,112841.00,A,1254.025700,N,8005.625900,E,0.37,188.100,071125,,,A,V*36
	Line 144546: 11-07 16:58:40.282  1778  2008 D CLUSTER_SERVICE: SampleClusterServiceImpl: nmeaData[0] contains RMC: $GNRMC,112841.00,A,1254.025700,N,8005.625900,E,0.37,188.100,071125,,,A,V*36
	Line 145588: 11-07 16:58:41.239   670  1392 I MTK_ADR : module_daemon.c save_active_rmc_sentences 519 save_active_rmc_sentences activeRmc[$GNRMC,112842.000,A,1254.025600,N,8005.625800,E,0.35,172.990,071125,,,A,V*03
	Line 145619: 11-07 16:58:41.278   706  1519 D android.hardware.gnss-service.mediatek: nmea [Visteon] [1762514922000] :: $GNRMC,112842.00,A,1254.025600,N,8005.625800,E,0.35,172.990,071125,,,A,V*33
	Line 145621: 11-07 16:58:41.280  1778  2008 D CLUSTER_SERVICE: SampleClusterServiceImpl: nmeaData[0] contains RMC: $GNRMC,112842.00,A,1254.025600,N,8005.625800,E,0.35,172.990,071125,,,A,V*33
	Line 146609: 11-07 16:58:42.244   670  1392 I MTK_ADR : module_daemon.c save_active_rmc_sentences 519 save_active_rmc_sentences activeRmc[$GNRMC,112843.000,A,1254.025700,N,8005.625900,E,0.72,51.250,071125,,,A,V*36
	Line 146662: 11-07 16:58:42.286   706  1519 D android.hardware.gnss-service.mediatek: nmea [Visteon] [1762514923000] :: $GNRMC,112843.00,A,1254.025700,N,8005.625900,E,0.72,51.250,071125,,,A,V*06
	Line 146665: 11-07 16:58:42.290  1778  2008 D CLUSTER_SERVICE: SampleClusterServiceImpl: nmeaData[0] contains RMC: $GNRMC,112843.00,A,1254.025700,N,8005.625900,E,0.72,51.250,071125,,,A,V*06
	Line 147576: 11-07 16:58:43.250   670  1392 I MTK_ADR : module_daemon.c save_active_rmc_sentences 519 save_active_rmc_sentences activeRmc[$GNRMC,112844.000,A,1254.026100,N,8005.626000,E,0.76,63.470,071125,,,A,V*3F
	Line 147605: 11-07 16:58:43.289   706  1519 D android.hardware.gnss-service.mediatek: nmea [Visteon] [1762514924000] :: $GNRMC,112844.00,A,1254.026100,N,8005.626000,E,0.76,63.470,071125,,,A,V*0F
	Line 147629: 11-07 16:58:43.295  1778  2008 D CLUSTER_SERVICE: SampleClusterServiceImpl: nmeaData[0] contains RMC: $GNRMC,112844.00,A,1254.026100,N,8005.626000,E,0.76,63.470,071125,,,A,V*0F
	Line 148603: 11-07 16:58:44.257   670  1392 I MTK_ADR : module_daemon.c save_active_rmc_sentences 519 save_active_rmc_sentences activeRmc[$GNRMC,112845.000,A,1254.026000,N,8005.626000,E,0.21,89.030,071125,,,A,V*39
	Line 148659: 11-07 16:58:44.288   706  1519 D android.hardware.gnss-service.mediatek: nmea [Visteon] [1762514925000] :: $GNRMC,112845.00,A,1254.026000,N,8005.626000,E,0.21,63.470,071125,,,A,V*0D
	Line 148661: 11-07 16:58:44.290  1778  2008 D CLUSTER_SERVICE: SampleClusterServiceImpl: nmeaData[0] contains RMC: $GNRMC,112845.00,A,1254.026000,N,8005.626000,E,0.21,63.470,071125,,,A,V*0D
	Line 149557: 11-07 16:58:45.244   670  1392 I MTK_ADR : module_daemon.c save_active_rmc_sentences 519 save_active_rmc_sentences activeRmc[$GNRMC,112846.000,A,1254.026000,N,8005.625800,E,0.36,315.220,071125,,,A,V*02
	Line 149618: 11-07 16:58:45.285   706  1519 D android.hardware.gnss-service.mediatek: nmea [Visteon] [1762514926000] :: $GNRMC,112846.00,A,1254.026000,N,8005.625800,E,0.36,315.220,071125,,,A,V*32
	Line 149620: 11-07 16:58:45.288  1778  2008 D CLUSTER_SERVICE: SampleClusterServiceImpl: nmeaData[0] contains RMC: $GNRMC,112846.00,A,1254.026000,N,8005.625800,E,0.36,315.220,071125,,,A,V*32
	Line 150561: 11-07 16:58:46.249   670  1392 I MTK_ADR : module_daemon.c save_active_rmc_sentences 519 save_active_rmc_sentences activeRmc[$GNRMC,112847.000,A,1254.026100,N,8005.625600,E,0.52,314.990,071125,,,A,V*0F
	Line 150662: 11-07 16:58:46.303   706  1519 D android.hardware.gnss-service.mediatek: nmea [Visteon] [1762514927000] :: $GNRMC,112847.00,A,1254.026100,N,8005.625600,E,0.52,314.990,071125,,,A,V*3F
	Line 150665: 11-07 16:58:46.306  1778  2008 D CLUSTER_SERVICE: SampleClusterServiceImpl: nmeaData[0] contains RMC: $GNRMC,112847.00,A,1254.026100,N,8005.625600,E,0.52,314.990,071125,,,A,V*3F
	Line 151648: 11-07 16:58:47.255   670  1392 I MTK_ADR : module_daemon.c save_active_rmc_sentences 519 save_active_rmc_sentences activeRmc[$GNRMC,112848.000,A,1254.026200,N,8005.625600,E,0.62,315.290,071125,,,A,V*0A
	Line 151721: 11-07 16:58:47.297   706  1519 D android.hardware.gnss-service.mediatek: nmea [Visteon] [1762514928000] :: $GNRMC,112848.00,A,1254.026200,N,8005.625600,E,0.62,315.290,071125,,,A,V*3A
	Line 151723: 11-07 16:58:47.299  1778  2008 D CLUSTER_SERVICE: SampleClusterServiceImpl: nmeaData[0] contains RMC: $GNRMC,112848.00,A,1254.026200,N,8005.625600,E,0.62,315.290,071125,,,A,V*3A
	Line 152652: 11-07 16:58:48.261   670  1392 I MTK_ADR : module_daemon.c save_active_rmc_sentences 519 save_active_rmc_sentences activeRmc[$GNRMC,112849.000,A,1254.026200,N,8005.625700,E,0.34,344.990,071125,,,A,V*06
	Line 152719: 11-07 16:58:48.311   706  1519 D android.hardware.gnss-service.mediatek: nmea [Visteon] [1762514929000] :: $GNRMC,112849.00,A,1254.026200,N,8005.625700,E,0.34,344.990,071125,,,A,V*36
	Line 152721: 11-07 16:58:48.313  1778  2008 D CLUSTER_SERVICE: SampleClusterServiceImpl: nmeaData[0] contains RMC: $GNRMC,112849.00,A,1254.026200,N,8005.625700,E,0.34,344.990,071125,,,A,V*36
	Line 153596: 11-07 16:58:49.249   670  1392 I MTK_ADR : module_daemon.c save_active_rmc_sentences 519 save_active_rmc_sentences activeRmc[$GNRMC,112850.000,A,1254.026500,N,8005.625700,E,1.45,6.040,071125,,,A,V*0F
	Line 153659: 11-07 16:58:49.290   706  1519 D android.hardware.gnss-service.mediatek: nmea [Visteon] [1762514930000] :: $GNRMC,112850.00,A,1254.026500,N,8005.625700,E,1.45,6.040,071125,,,A,V*3F
	Line 153670: 11-07 16:58:49.294  1778  2008 D CLUSTER_SERVICE: SampleClusterServiceImpl: nmeaData[0] contains RMC: $GNRMC,112850.00,A,1254.026500,N,8005.625700,E,1.45,6.040,071125,,,A,V*3F
	Line 154642: 11-07 16:58:50.236   670  1392 I MTK_ADR : module_daemon.c save_active_rmc_sentences 519 save_active_rmc_sentences activeRmc[$GNRMC,112851.000,A,1254.026800,N,8005.625800,E,1.05,2.420,071125,,,A,V*0E
	Line 154725: 11-07 16:58:50.282   706  1519 D android.hardware.gnss-service.mediatek: nmea [Visteon] [1762514931000] :: $GNRMC,112851.00,A,1254.026800,N,8005.625800,E,1.05,2.420,071125,,,A,V*3E
	Line 154727: 11-07 16:58:50.286  1778  2008 D CLUSTER_SERVICE: SampleClusterServiceImpl: nmeaData[0] contains RMC: $GNRMC,112851.00,A,1254.026800,N,8005.625800,E,1.05,2.420,071125,,,A,V*3E
	Line 155674: 11-07 16:58:51.243   670  1392 I MTK_ADR : module_daemon.c save_active_rmc_sentences 519 save_active_rmc_sentences activeRmc[$GNRMC,112852.000,A,1254.026900,N,8005.625700,E,0.92,354.210,071125,,,A,V*09
	Line 155735: 11-07 16:58:51.289   706  1519 D android.hardware.gnss-service.mediatek: nmea [Visteon] [1762514932000] :: $GNRMC,112852.00,A,1254.026900,N,8005.625700,E,0.92,354.210,071125,,,A,V*39
	Line 155744: 11-07 16:58:51.293  1778  2008 D CLUSTER_SERVICE: SampleClusterServiceImpl: nmeaData[0] contains RMC: $GNRMC,112852.00,A,1254.026900,N,8005.625700,E,0.92,354.210,071125,,,A,V*39
	Line 156712: 11-07 16:58:52.250   670  1392 I MTK_ADR : module_daemon.c save_active_rmc_sentences 519 save_active_rmc_sentences activeRmc[$GNRMC,112853.000,A,1254.027000,N,8005.625600,E,0.60,339.260,071125,,,A,V*00
	Line 156805: 11-07 16:58:52.306   706  1519 D android.hardware.gnss-service.mediatek: nmea [Visteon] [1762514933000] :: $GNRMC,112853.00,A,1254.027000,N,8005.625600,E,0.60,339.260,071125,,,A,V*30
	Line 156807: 11-07 16:58:52.309  1778  2008 D CLUSTER_SERVICE: SampleClusterServiceImpl: nmeaData[0] contains RMC: $GNRMC,112853.00,A,1254.027000,N,8005.625600,E,0.60,339.260,071125,,,A,V*30
	Line 157871: 11-07 16:58:53.254   670  1392 I MTK_ADR : module_daemon.c save_active_rmc_sentences 519 save_active_rmc_sentences activeRmc[$GNRMC,112854.000,A,1254.026800,N,8005.625700,E,0.17,55.450,071125,,,A,V*33
	Line 157900: 11-07 16:58:53.284   706  1519 D android.hardware.gnss-service.mediatek: nmea [Visteon] [1762514934000] :: $GNRMC,112854.00,A,1254.026800,N,8005.625700,E,0.17,339.260,071125,,,A,V*3F
	Line 157902: 11-07 16:58:53.286  1778  2008 D CLUSTER_SERVICE: SampleClusterServiceImpl: nmeaData[0] contains RMC: $GNRMC,112854.00,A,1254.026800,N,8005.625700,E,0.17,339.260,071125,,,A,V*3F
	Line 158912: 11-07 16:58:54.241   670  1392 I MTK_ADR : module_daemon.c save_active_rmc_sentences 519 save_active_rmc_sentences activeRmc[$GNRMC,112855.000,A,1254.026600,N,8005.625800,E,0.31,96.260,071125,,,A,V*3D
	Line 159004: 11-07 16:58:54.282   706  1519 D android.hardware.gnss-service.mediatek: nmea [Visteon] [1762514935000] :: $GNRMC,112855.00,A,1254.026600,N,8005.625800,E,0.31,96.260,071125,,,A,V*0D
	Line 159006: 11-07 16:58:54.285  1778  2008 D CLUSTER_SERVICE: SampleClusterServiceImpl: nmeaData[0] contains RMC: $GNRMC,112855.00,A,1254.026600,N,8005.625800,E,0.31,96.260,071125,,,A,V*0D
	Line 159934: 11-07 16:58:55.247   670  1392 I MTK_ADR : module_daemon.c save_active_rmc_sentences 519 save_active_rmc_sentences activeRmc[$GNRMC,112856.000,A,1254.026400,N,8005.625900,E,0.09,122.900,071125,,,A,V*05
	Line 160004: 11-07 16:58:55.278   706  1519 D android.hardware.gnss-service.mediatek: nmea [Visteon] [1762514936000] :: $GNRMC,112856.00,A,1254.026400,N,8005.625900,E,0.09,96.260,071125,,,A,V*06
	Line 160006: 11-07 16:58:55.280  1778  2008 D CLUSTER_SERVICE: SampleClusterServiceImpl: nmeaData[0] contains RMC: $GNRMC,112856.00,A,1254.026400,N,8005.625900,E,0.09,96.260,071125,,,A,V*06
	Line 161028: 11-07 16:58:56.254   670  1392 I MTK_ADR : module_daemon.c save_active_rmc_sentences 519 save_active_rmc_sentences activeRmc[$GNRMC,112857.000,A,1254.026400,N,8005.625800,E,0.16,316.850,071125,,,A,V*0A
	Line 161137: 11-07 16:58:56.309   706  1519 D android.hardware.gnss-service.mediatek: nmea [Visteon] [1762514937000] :: $GNRMC,112857.00,A,1254.026400,N,8005.625800,E,0.16,96.260,071125,,,A,V*08
	Line 161147: 11-07 16:58:56.311  1778  2008 D CLUSTER_SERVICE: SampleClusterServiceImpl: nmeaData[0] contains RMC: $GNRMC,112857.00,A,1254.026400,N,8005.625800,E,0.16,96.260,071125,,,A,V*08
  C:\Users\Jramakr1\Downloads\scripts\vstgloballogcontrol_2025_11_7_17_30_6\main_8_2025_11_7_17_1_34 (474 hits)
